stop_id,stop_code,stop_name,stop_lat,stop_lon,location_type
133305,1020,"Centre",43.6211020893,5.2980328325,0
133306,1021,"Centre",43.6210608338,5.2983077141,0
122885,12885,"Foyer Soleil",43.4475208781,5.2551476964,0
122886,12886,"Foyer Soleil",43.4478409045,5.2550359505,0
122879,12879,"Le Parc",43.4557359774,5.2505329315,0
122880,12880,"Le Parc",43.4559372099,5.2505740374,0
134202,11153,"Saint Roch",43.4586614254,5.4748800589,0
123668,13668,"Pichaury",43.4798197112,5.3676098593,0
123669,13669,"Pichaury",43.4803401953,5.3669303457,0
120514,10514,"Centre Commercial Rhin et Danube",43.4597779025,5.405246387,0
120515,10515,"Centre Commercial Rhin et Danube",43.4599260172,5.4055328997,0
121692,11692,"La Croix",43.4774652215,5.4918240654,0
121693,11693,"La Croix",43.4772769664,5.4917642804,0
121901,11901,"La Lecque",43.4463174915,5.645945296,0
121902,11902,"La Lecque",43.4464989266,5.6455653648,0
121903,11903,"Le Village",43.446711864,5.6402707235,0
121904,11904,"Le Village",43.4467440025,5.6395519202,0
121909,11909,"La Corneirelle",43.4631653632,5.611852102,0
121910,11910,"La Corneirelle",43.4632880748,5.6120320069,0
122668,12668,"Pragues",43.4487236633,5.6829593283,0
122669,12669,"Le Vallat",43.4499697319,5.6745703494,0
122670,12670,"Le Vallat",43.4501002735,5.6744213187,0
133335,1050,"Baume",43.7151073613,5.3241851264,0
133336,1051,"Baume",43.7150167029,5.3241292182,0
133343,1058,"Grand Clos",43.7185701577,5.3055464027,0
133344,1059,"Grand Clos",43.718633223,5.3055837938,0
120127,10127,"Célony",43.5557239157,5.4195190778,0
120128,10128,"Célony",43.5558166923,5.4196168391,0
121863,11863,"Cadeneaux",43.3950234669,5.3435698981,0
121864,11864,"Cadeneaux",43.3952422054,5.3436268528,0
122881,12881,"Les Vignes",43.45328071,5.2507890834,0
122882,12882,"Les Vignes",43.4531517187,5.2507369973,0
125051,15051,"Plan de Campagne",43.4214824209,5.36760638,0
125052,15052,"Plan de Campagne",43.4210429787,5.367162859,0
122753,12753,"Les Batailles",43.5405384876,5.269310932,0
122754,12754,"Les Batailles",43.5405057193,5.2686130453,0
122757,12757,"La Lecque",43.5461950678,5.2850637899,0
122758,12758,"La Lecque",43.5464554002,5.2863994627,0
122941,12941,"Malvallat",43.5490900509,5.2566242122,0
122942,12942,"La Plantade",43.5574166293,5.2547703197,0
122943,12943,"La Plantade",43.5571811452,5.254664771,0
120051,10051,"Hôpital Provence D8N",43.5052744938,5.4354751141,0
120052,10052,"Hôpital Provence D8N",43.5038216913,5.4353268933,0
120141,10141,"La Blaque",43.4893163907,5.4256808858,0
120142,10142,"La Blaque",43.4892259689,5.4254227644,0
134102,13536,"Mail",43.4854229527,5.4179002644,0
133307,1022,"La Galinette",43.6181633532,5.3080693422,0
133308,1023,"La Galinette",43.6183511219,5.308028047,0
134025,15036,"Hippodrome",43.508115428,5.4249647708,0
134026,15037,"Hippodrome",43.5080099412,5.4254688075,0
122936,12936,"La Mine",43.5496076534,5.2436008308,0
133535,1250,"La Mine",43.5494511594,5.2434004403,0
134002,18615,"République",43.5286245564,5.4400622512,0
121869,11869,"Roches Blanches",43.3993150036,5.3414471895,0
121870,11870,"Roches Blanches",43.3993270783,5.3414979265,0
127177,17177,"Vincent Scotto",43.6377484479,5.5263660066,0
134568,29381,"Vincent Scotto",43.6381682694,5.5265048187,0
123970,13970,"Lycée International de Luynes",43.4804561177,5.4146677302,0
123971,13971,"Lycée International de Luynes",43.4804028448,5.4151558223,0
120031,10031,"Sous Préfecture",43.5197618638,5.4426781142,0
120032,10032,"Sous Préfecture",43.5197465871,5.4427792528,0
124733,14733,"La Beauvalle",43.5147007207,5.4427422935,0
124734,14734,"La Beauvalle",43.5147082151,5.4425990305,0
120171,10171,"Parc Club Golf",43.4855073258,5.3617128223,0
120172,10172,"Parc Club Golf",43.4850102833,5.362720234,0
124424,14424,"Le Frère",43.4888668812,5.3765816811,0
124425,14425,"Le Frère",43.4887048853,5.3764657588,0
132298,13,"Pôle d'Activités",43.4909025045,5.3726403326,0
120137,10137,"Les Frères Gris",43.4962563333,5.4335696226,0
120138,10138,"Les Frères Gris",43.4960367458,5.4333469327,0
120512,10512,"La Mounine",43.4621891751,5.4067932787,0
120513,10513,"La Mounine",43.4627703483,5.4075058713,0
124454,14454,"La Mûle",43.4571857539,5.403497027,0
124455,14455,"La Mûle",43.4569194196,5.4035329122,0
120522,10522,"Plan Marseillais",43.4438202521,5.397634724,0
120523,10523,"Plan Marseillais",43.4436090918,5.3975092603,0
120530,10530,"Les Chabauds",43.4279440915,5.3894802348,0
120531,10531,"Les Chabauds",43.42805537,5.3894807685,0
120532,10532,"La Malle",43.4264166743,5.387999066,0
120533,10533,"La Malle",43.4264525501,5.3881613891,0
124860,14860,"Descartes",43.4955041111,5.3475926927,0
124861,14861,"Descartes",43.495811803,5.3470004513,0
123767,13767,"ADM Zola",43.5113916629,5.461491252,0
132875,590,"Les Feuillants",43.598574305,5.4497322395,0
132775,490,"Les Palombes",43.5795543533,5.4093552044,0
133998,17727,"Les Palombes",43.5799728664,5.4093854507,0
132903,618,"Les Lauves Sud",43.5553392644,5.4437779303,0
132904,619,"Les Lauves Sud",43.5553234059,5.4438211272,0
132969,684,"Pasteur N. Dame",43.5343866528,5.4464700293,0
120045,10045,"L'Armelière",43.5100954417,5.4361781404,0
134030,18602,"L'Armelière",43.5098233439,5.4353956751,0
123666,13666,"Les Grottes",43.4790203935,5.3707300344,0
123667,13667,"Les Grottes",43.4787601154,5.3718300955,0
133961,13998,"Pasteur",43.5333054514,5.4458711117,0
133962,13999,"Pasteur",43.5332390026,5.4460313039,0
133972,14811,"Puyricard Fêtes",43.5805737427,5.4212887044,0
133973,14812,"Puyricard Fêtes",43.5807334751,5.4215223622,0
123664,13664,"La Robole",43.4780393825,5.3746702742,0
123665,13665,"La Robole",43.478170084,5.3747397379,0
124435,14435,"Garcin",43.6924616278,5.5054129002,0
127445,17445,"Bourse",43.5322031735,5.445223166,0
124803,14803,"Bonaparte",43.5266299099,5.4445237922,0
124028,14028,"Pibou",43.4477689495,5.4270620115,0
124029,14029,"Pibou",43.4478253605,5.4270550272,0
127155,17155,"Eglise",43.636992635,5.6345223421,0
127156,17156,"Eglise",43.6370680245,5.6345576654,0
120673,10673,"Les Patelles",43.4446765536,5.3725928372,0
120674,10674,"Les Patelles",43.4447115361,5.37266798,0
124827,14827,"Saint Pierre",43.523020619,5.4561527977,0
125017,15017,"Les Ribas",43.4845113975,5.6152113377,0
125018,15018,"Les Ribas",43.4852940674,5.6146524178,0
132622,337,"Bagatelle",43.5364649309,5.4092512343,0
132623,338,"Bagatelle",43.5364042275,5.4092904699,0
132811,526,"Belveyre",43.5709750912,5.4243687772,0
132812,527,"Belveyre",43.5709704512,5.4242950749,0
132901,616,"Les Lauves Nord",43.55734236,5.4431679646,0
132902,617,"Les Lauves Nord",43.5573839654,5.4432459803,0
120664,10664,"Tennis",43.4639776639,5.3470453806,0
120665,10665,"Tennis",43.4638814007,5.3469901568,0
125068,15068,"Ecole de la Barque",43.4783424062,5.538528036,0
133337,1052,"Trou de Magnan",43.7144954946,5.3185197647,0
133338,1053,"Trou de Magnan",43.7144838369,5.3180037268,0
132770,485,"Abbé Roustand",43.5811354124,5.4114810111,0
133994,17694,"Abbé Roustand",43.5807781816,5.4114702871,0
134023,14408,"Aérodrome",43.5029502767,5.3734613286,0
132966,681,"Alexis",43.5359441523,5.446146001,0
132967,682,"Alexis",43.5358434083,5.4459743886,0
120111,10111,"Amadour",43.533175387,5.4270179095,0
120112,10112,"Amadour",43.5330464541,5.4269267191,0
123658,13658,"Ampère",43.4862763946,5.3795830325,0
133944,13659,"Ampère",43.4865825597,5.3795298356,0
124704,14704,"Arago",43.4924861548,5.3553399994,0
132319,34,"Arago",43.4919424868,5.3552032193,0
125074,15074,"Archimède",43.4916287305,5.3393282996,0
125075,15075,"Archimède",43.4914714478,5.3388799659,0
132396,111,"Armée d'Afrique",43.5139255049,5.4548919368,0
132964,679,"Atelier Cézanne",43.5369809085,5.4467657147,0
132687,402,"Avon",43.5636666288,5.4204841578,0
132688,403,"Avon",43.5635714484,5.4205887968,0
133011,726,"Badesse",43.5029573366,5.3762062285,0
134029,18325,"Badesse",43.503039257,5.3759719609,0
133989,17227,"Beaufort",43.5695457037,5.4331047281,0
133990,17228,"Beaufort",43.5697853785,5.4331764789,0
132668,383,"Beauregard",43.5377898631,5.4729507108,0
132674,389,"Beauregard",43.5378326338,5.4733749761,0
120059,10059,"Beausoleil",43.514362351,5.4641987285,0
134145,10060,"Beausoleil",43.5142739191,5.4628267039,0
123809,13809,"Bellegarde",43.5316968034,5.4516372298,0
127220,17220,"Bellegarde",43.5323598571,5.4520759176,0
132856,571,"Bellevue",43.5414267495,5.4417527159,0
132857,572,"Bellevue",43.5413838532,5.4418369369,0
123662,13662,"Berthier",43.4810301169,5.3793271738,0
123663,13663,"Berthier",43.4811163539,5.3795780095,0
123660,13660,"Bessemer",43.4842281386,5.382250151,0
123661,13661,"Bessemer",43.4844953767,5.3822219177,0
120139,10139,"Bon Rencontre",43.4922233916,5.4298528431,0
120140,10140,"Bon Rencontre",43.4919276404,5.4292276579,0
120026,10026,"Briand",43.5326476905,5.4488780881,0
133985,17206,"Brunet",43.5472493666,5.4400379957,0
133986,17207,"Brunet",43.5473037269,5.4397503524,0
134021,14402,"Champ de Foire",43.5078063194,5.4172109894,0
134022,14403,"Champ de Foire",43.507654645,5.4172862293,0
120143,10143,"Chapuis",43.4868229778,5.4222558321,0
120144,10144,"Chapuis",43.4871286049,5.4224190041,0
132923,638,"Chocolaterie",43.5632359939,5.4340066493,0
132924,639,"Chocolaterie",43.5633596149,5.4341262197,0
132377,92,"Churchill",43.518948639,5.4454642975,0
123805,13805,"CLG St Eutrope",43.5403995908,5.4523170795,0
133371,1086,"D13",43.5820786161,5.4569934069,0
134439,17379,"D13",43.5800963786,5.4560197863,0
133372,1087,"D14",43.5770005718,5.4576717736,0
133375,1090,"D16",43.5676014252,5.4568799764,0
133376,1091,"D16",43.5676293576,5.4570028851,0
133377,1092,"D17",43.5643264954,5.4576102864,0
133378,1093,"D17",43.563510595,5.4582591762,0
133947,14388,"De Régis",43.5796642439,5.4183297008,0
133963,14389,"De Régis",43.5794624615,5.4183481994,0
132921,636,"Dioulouffet",43.5661961626,5.4340913648,0
132922,637,"Dioulouffet",43.5658731304,5.434025146,0
132947,662,"Dr Bertrand",43.5413943961,5.4519346847,0
132948,663,"Dr Bertrand",43.5414981078,5.4521590359,0
123654,13654,"Duchesne",43.4920457518,5.3724037536,0
133953,15048,"Duranne Ecole",43.4864652347,5.3446172458,0
132296,11,"Entrepôts",43.4871893713,5.3724741657,0
132887,602,"Eperon",43.557217052,5.4336301481,0
132888,603,"Eperon",43.5575383185,5.4343069257,0
133974,14847,"Etoile",43.574071107,5.4225713816,0
133975,14848,"Etoile",43.5733181879,5.423227367,0
132685,400,"Faveloun",43.5603608679,5.420690711,0
132686,401,"Faveloun",43.5604708621,5.4205791473,0
132317,32,"Fresnel",43.4958344282,5.3514259453,0
132318,33,"Fresnel",43.4957015939,5.3513517692,0
132816,531,"Fusains",43.5687778654,5.4254020092,0
132817,532,"Fusains",43.5682268496,5.4259953674,0
132780,495,"Glacière",43.5747991769,5.4217617118,0
132559,274,"Horloge",43.529822945,5.4201674539,0
132560,275,"Horloge",43.5299730092,5.4204637345,0
133914,1629,"J10",43.5472389656,5.4933221226,0
133915,1630,"J11",43.5461307417,5.4962318046,0
133916,1631,"J12",43.5450323509,5.4994557001,0
132751,466,"J16",43.5518550907,5.5428156989,0
132754,469,"J17",43.5521783202,5.5388553818,0
133911,1626,"J06",43.5528841184,5.5281513965,0
133921,1636,"J06bis",43.5499489674,5.5236382019,0
133912,1627,"J07",43.5483234892,5.5118287834,0
133913,1628,"J08",43.5466303161,5.5121311994,0
132914,629,"La Coquillade",43.5775779772,5.4319649977,0
133965,14702,"La Coquillade",43.5774843852,5.431778209,0
120113,10113,"La Raymonde",43.5347542593,5.4234670148,0
120114,10114,"La Raymonde",43.5350008277,5.423454831,0
132907,622,"Les Casams",43.5505326259,5.4442137527,0
132908,623,"Les Casams",43.5504429637,5.4441648215,0
133966,14750,"Les Peintres",43.5448240893,5.4452820897,0
133967,14751,"Les Peintres",43.5449826707,5.4453193099,0
133328,1043,"Lignane",43.5857758208,5.3693251308,0
133329,1044,"Lignane",43.5857013603,5.3690938117,0
120145,10145,"Luynes Sud",43.4836610606,5.4177497912,0
120146,10146,"Luynes Sud",43.4839592322,5.4180561194,0
120095,10095,"Lycée Cézanne",43.5330212409,5.4589176633,0
120096,10096,"Lycee Cézanne",43.5339022246,5.4592841296,0
125144,15144,"Magellan",43.4946258716,5.3556899554,0
125145,15145,"Magellan",43.4943845478,5.3558771961,0
132841,556,"Mairie Puyricard",43.5821119489,5.4220329664,0
132842,557,"Mairie Puyricard",43.5824553552,5.4220553832,0
120017,10017,"Miollis",43.5280246032,5.4551896801,0
132897,612,"Montvert",43.5453478422,5.4407531734,0
132898,613,"Montvert",43.5456733235,5.4408512264,0
134109,17728,"Moulin Testas",43.5173687119,5.4497667318,0
124663,14663,"Mouret",43.5200708051,5.4350951284,0
134230,17231,"Mouret",43.520029311,5.4346996829,0
133968,14770,"Ontano",43.547340897,5.4426428692,0
133969,14771,"Ontano",43.5473613997,5.4427900543,0
132852,567,"Pâquerettes",43.5364698669,5.444755894,0
132853,568,"Pâquerettes",43.5374180543,5.4447811794,0
134018,10047,"Parade",43.5081159482,5.4236101423,0
134019,10048,"Parade",43.5079973678,5.4237860096,0
132659,374,"Parc Beauregard",43.5376813654,5.4708011712,0
132663,378,"Parc Beauregard",43.537582793,5.4709047227,0
134159,18633,"P+R Krypton Q4",43.5111124939,5.4485811709,0
134175,18635,"P+R Krypton Q5",43.5111236745,5.4486613339,0
134586,24964,"Krypton",43.511037396,5.4484952127,0
120099,10099,"Pt Roquefavour",43.5357095525,5.469513894,0
120100,10100,"Pt Roquefavour",43.5353182098,5.4687413724,0
124858,14858,"Philibert",43.4948085095,5.3429040898,0
124859,14859,"Philibert",43.4948832996,5.3426810187,0
132294,9,"Pilon du Roy",43.4820855613,5.3785766092,0
132647,362,"Pinette",43.5372521648,5.4678064707,0
132649,364,"Pinette",43.5369188747,5.4677070768,0
132774,489,"Plantation",43.5825145578,5.4086483288,0
120041,10041,"Pont de l'Arc",43.510218773,5.4410808028,0
120042,10042,"Pont de l'Arc",43.5094329594,5.440726888,0
134024,14787,"Pont de l'Arc",43.5094837334,5.4409551699,0
133964,14441,"Pont Corneilles",43.5414610453,5.4543007234,0
132889,604,"Puy du Roy",43.5553087566,5.43403379,0
132890,605,"Puy du Roy",43.5543992903,5.4340300984,0
120149,10149,"Rampelin",43.4773324122,5.4142148593,0
120150,10150,"Rampelin",43.4779222626,5.4143067948,0
133296,1011,"Rapine",43.5521480318,5.4243424092,0
133297,1012,"Rapine",43.5527579149,5.4236951864,0
134507,14791,"Rectorat",43.5223653903,5.4475713512,0
133970,14794,"Résid. Beaufort",43.5636881664,5.4296431712,0
133971,14795,"Résid. Beaufort",43.5627400717,5.4301639151,0
133288,1003,"Résidence du Pey Blanc",43.5434415573,5.4031440923,0
133289,1004,"Résidence du Pey Blanc",43.5430822938,5.4039972954,0
133991,17229,"Rigaud",43.5429356968,5.4545890472,0
133981,17198,"Romana",43.5817586617,5.416483115,0
133982,17199,"Romana",43.5820584612,5.416339203,0
132818,533,"Rosaki",43.5661369427,5.4275213517,0
132819,534,"Rosaki",43.5659854122,5.4275518094,0
124817,14817,"Saint Benoît",43.5141273263,5.4622980783,0
134146,13820,"Saint Benoît",43.5140492829,5.4610324525,0
120116,10116,"Saint Mitre",43.5361004537,5.4220360341,0
124829,14829,"Saint Thomas",43.5312174182,5.4568318888,0
132851,566,"Solari",43.5349813785,5.4454167473,0
133980,15020,"Solari",43.5342455607,5.4456301712,0
120016,10016,"Saint Jean",43.5251132513,5.4545851043,0
134434,10073,"Saint Jérôme",43.5178042206,5.4596409394,0
133581,1296,"Saint Joseph",43.5087147799,5.3896253938,0
120068,10068,"Sainte Anne",43.5213290934,5.4586623392,0
132773,488,"Tourterelles",43.5813681553,5.4097017832,0
133999,17736,"Tourterelles",43.5816246882,5.4100906414,0
120151,10151,"Trois Pigeons",43.4729875493,5.4097869733,0
123537,13537,"Trois Pigeons",43.4732063257,5.410355225,0
132395,110,"Val Saint Jean",43.5158314053,5.4523139614,0
132707,422,"Vidal",43.4862758438,5.4155513742,0
123651,13651,"Zone Artisanale",43.4932667531,5.3690813342,0
134244,13652,"Zone Artisanale",43.4930905932,5.3693491798,0
120518,10518,"La Croix d'Or",43.4525281802,5.400489913,0
120519,10519,"La Croix d'Or",43.4523415751,5.4001728431,0
120585,10585,"La Cyprière",43.4593362441,5.4167582686,0
124064,14064,"La Gratiane",43.4582460226,5.4158037157,0
124065,14065,"La Gratiane",43.4580854177,5.4157981622,0
120557,10557,"Malbergue",43.4509432359,5.4229967846,0
120558,10558,"Malbergue",43.4510014251,5.4230847929,0
120541,10541,"La Salle - Les Marronniers",43.4399899499,5.4235888953,0
120542,10542,"La Salle - Les Marronniers",43.4398928637,5.4236422874,0
120528,10528,"Petites Bastides",43.4321131307,5.3957262555,0
120529,10529,"Petites Bastides",43.4332885204,5.3964176626,0
127680,17680,"Petites Bastides",43.4332214056,5.3964850362,0
120536,10536,"Pin Porte Rouge",43.419709978,5.3798827778,0
120537,10537,"Pin Porte Rouge",43.4196537137,5.3800440356,0
120520,10520,"Pont de Bouc",43.4478732299,5.3975073484,0
120521,10521,"Pont de Bouc",43.4479130483,5.3972926854,0
124156,14156,"Centre de Calas",43.4595611544,5.353348118,0
124157,14157,"Centre de Calas",43.4599181626,5.3533653913,0
123741,13741,"Jean Moulin",43.4613690848,5.3501622863,0
123742,13742,"Jean Moulin",43.4615872773,5.34951477,0
120683,10683,"Le Verger",43.4296473846,5.3828372422,0
120684,10684,"Le Verger",43.4286492148,5.3836294209,0
120677,10677,"Route de Rans",43.4394875862,5.3796828318,0
120678,10678,"Route de Rans",43.4397325534,5.3795670303,0
120672,10672,"Saint Martin",43.446491921,5.3693632894,0
134563,29327,"Saint Martin",43.4461678123,5.3696153622,0
120781,10781,"La Geinette",43.4883811046,5.5976718166,0
120782,10782,"La Geinette",43.4885684234,5.5976122314,0
120983,10983,"Les Fourques",43.5689413776,5.3682939107,0
120984,10984,"Les Fourques",43.5692366653,5.3678673504,0
123930,13930,"Les Plantiers",43.5504650038,5.3666869862,0
123931,13931,"Les Plantiers",43.551249485,5.3664959414,0
124492,14492,"Tourmaline",43.5457508346,5.3641240427,0
124493,14493,"Tourmaline",43.5458562413,5.363893146,0
120974,10974,"Vieille",43.5686969958,5.3600418049,0
124490,14490,"Les Corindons",43.5453754557,5.3609889865,0
124491,14491,"Les Corindons",43.5454137053,5.3612290341,0
125007,15007,"CLG Font d'Aurumy",43.4458496843,5.5593073188,0
125008,15008,"CLG Font d'Aurumy",43.4460027406,5.5594903033,0
134182,17919,"Collège Pesquier",43.4444847916,5.4695789415,0
134198,18189,"Collège Pesquier",43.444405387,5.469796783,0
121143,11143,"GR SNCF Quai 01",43.4554964255,5.4647871978,0
134212,17942,"La Crau",43.4565857884,5.4822991025,0
134213,17944,"La Crau",43.4566053532,5.481820982,0
134101,11180,"Lycée Fourcade",43.4559797482,5.4775178789,0
134127,11179,"Lycée Fourcade",43.4561760036,5.4778048971,0
134180,11184,"Route Blanche",43.446712337,5.4731996671,0
134193,17988,"Route Blanche",43.4467137663,5.473073217,0
134151,17939,"Halte Routière",43.4310953281,5.5420860408,0
134152,17941,"Halte Routière",43.4311944,5.5423461269,0
124691,14691,"Le Couloubleau",43.6341545434,5.6419593552,0
124697,14697,"Mairie",43.6369982926,5.6383918851,0
124698,14698,"Mairie",43.6370547832,5.6381621334,0
121323,11323,"Saint Jean",43.6394098774,5.6157449436,0
121324,11324,"Saint Jean",43.6393658462,5.6156394477,0
121319,11319,"Sainte Marguerite",43.6350263472,5.6305210493,0
121320,11320,"Sainte Marguerite",43.6356028687,5.631713978,0
121321,11321,"Vallon des Asseaux",43.6363621243,5.6232051174,0
121322,11322,"Vallon des Asseaux",43.6364129066,5.6233102287,0
133309,1024,"Hôtel de ville",43.6551009906,5.2625797906,0
133568,1283,"La Gare",43.6546774256,5.2688828991,0
133310,1025,"Montée d'Aix",43.6521381208,5.2636309718,0
133311,1026,"Montée d'Aix",43.6524877398,5.2634661926,0
121670,11670,"Médiathèque",43.638382075,5.527948132,0
121671,11671,"Médiathèque",43.6384521197,5.5280132056,0
121694,11694,"Le Plan de Meyreuil",43.4730437895,5.4955770491,0
121695,11695,"Le Plan de Meyreuil",43.4729471893,5.4957276354,0
121698,11698,"Les Sauvaires",43.469066126,5.4971882414,0
133320,1035,"Les Sauvaires",43.4687802895,5.4976579305,0
134469,18788,"Les Sauvaires",43.4684247778,5.4968603009,0
133438,1153,"Château Bas",43.4259777107,5.4867082738,0
133439,1154,"Château Bas",43.425812309,5.4867130577,0
121873,11873,"Le Ripert",43.3981929109,5.3422208187,0
121874,11874,"Le Ripert",43.3987191515,5.3417720584,0
121861,11861,"Les Oliviers",43.3895247387,5.3445198678,0
121862,11862,"Les Oliviers",43.3900099961,5.3444120078,0
121871,11871,"Les Romarins",43.4015309068,5.3394620541,0
121872,11872,"Les Romarins",43.401325163,5.3395437729,0
121905,11905,"Le Lavoir",43.4501304045,5.637829834,0
121906,11906,"Le Lavoir",43.4502955848,5.6377228445,0
121907,11907,"Le Vieux Moulin",43.4576234162,5.6296526559,0
121908,11908,"Le Vieux Moulin",43.4579364673,5.6297841125,0
122059,12059,"Halte St Canadet",43.655931571,5.4691768895,0
122060,12060,"Halte St Canadet",43.6560500558,5.4687350507,0
133385,1100,"La Groule",43.6444443602,5.4632732528,0
133386,1101,"La Groule",43.6444432754,5.4630773248,0
133381,1096,"Les Fanettes",43.6525795752,5.459064828,0
133382,1097,"Les Fanettes",43.6523463084,5.4595112148,0
133358,1073,"Les Gielles",43.6716263297,5.4171073043,0
133359,1074,"Les Gielles",43.671976448,5.4166576186,0
133353,1068,"Les Goirands",43.6612734805,5.4512638423,0
133354,1069,"Les Goirands",43.6610647962,5.4509744363,0
133383,1098,"Les Savoyants",43.6484963677,5.4622743349,0
133384,1099,"Les Savoyants",43.6483319752,5.4621654523,0
133402,1117,"Saint Canadet",43.63060102,5.4580837248,0
133409,1124,"Place de St Canadet",43.6300234798,5.4568617462,0
133339,1054,"Jacourelette",43.7132103974,5.3118513348,0
133340,1055,"Jacourelette",43.7133076013,5.3122013112,0
122186,12186,"Collège",43.4789844916,5.6245817833,0
127128,17128,"Imbert",43.4677781239,5.6132353084,0
127129,17129,"Imbert",43.4681433984,5.6130177195,0
124476,14476,"La Marnière",43.4713713747,5.6072380643,0
124477,14477,"La Marnière",43.4714615371,5.6071197136,0
122199,12199,"La Plaine",43.4705576221,5.5984653546,0
122200,12200,"La Plaine",43.4706644147,5.5980569384,0
124310,14310,"Les Ecoles",43.4818512892,5.6241126924,0
124311,14311,"Les Ecoles",43.4808534223,5.6241310114,0
122201,12201,"Villevieille",43.471720194,5.6148967977,0
122202,12202,"Villevieille",43.4714480899,5.6152671608,0
122248,12248,"Cave Coopérative",43.6228640816,5.2988872393,0
133541,1256,"Cave Coopérative",43.6230362216,5.2991290957,0
124654,14654,"Centre Saint Paul",43.6857160694,5.7076921029,0
125150,15150,"Centre Saint Paul",43.6855623837,5.7093768208,0
133930,1645,"Les Gilets",43.4150850823,5.5373837888,0
133931,1646,"Les Gilets",43.41488442,5.5372507393,0
134486,24258,"Centre",43.3986379145,5.3665512721,0
134490,25589,"Centre",43.3986026301,5.3667266962,0
133924,1639,"Gavotte Peyret",43.3892646037,5.3524181577,0
132254,22254,"Peyrets Fabrégoules",43.4100362208,5.3719226888,0
134484,23380,"Peyrets Fabrégoules",43.4100110129,5.3720593588,0
133922,1637,"Crèche Mandela",43.4103050362,5.3707997288,0
133923,1638,"Crèche Mandela",43.410212724,5.3708842734,0
133926,1641,"Mandela Ecole",43.4086993454,5.3668984141,0
133927,1642,"Mandela Ecole",43.4090273163,5.3678278172,0
134482,20606,"Septèmes Nord",43.4012292326,5.3695420478,0
134488,25098,"Septèmes Nord",43.4007364333,5.369437333,0
134485,23872,"Septèmes Sud",43.3968729458,5.3654343113,0
134489,25099,"Septèmes Sud",43.3968871192,5.365569951,0
133928,1643,"Tubié Sauze",43.4070480262,5.3631760855,0
122627,12627,"Gare de Simiane",43.4346921829,5.4261579892,0
125115,15115,"Molx",43.4295168485,5.4562791821,0
125116,15116,"Molx",43.429417399,5.4563748013,0
122686,12686,"Ouest",43.555152806,5.5975881327,0
125025,15025,"Ouest",43.5552828296,5.5978251432,0
133398,1113,"L'Oratoire",43.6109951127,5.4680381888,0
133399,1114,"L'Oratoire",43.6108730333,5.4677498546,0
123802,13802,"La Poste",43.5975352011,5.4847622662,0
132256,22256,"La Poste",43.5989434397,5.4851694499,0
122725,12725,"La Touloubre",43.5824043837,5.4724657117,0
122726,12726,"La Touloubre",43.5827987805,5.4727069972,0
122727,12727,"Les Quatre Tours",43.5908202555,5.4792029282,0
122728,12728,"Les Quatre Tours",43.5904937616,5.4785600071,0
124556,14556,"Mas d'Aubère",43.5709023015,5.4683526705,0
124557,14557,"Mas d'Aubère",43.5712324014,5.4687952502,0
122721,12721,"Rd Pt de la Gare",43.5874848093,5.4762428257,0
122722,12722,"Rd Pt de la Gare",43.587490881,5.475840209,0
133683,1398,"Les Gourgoulons",43.5542924665,5.2997500349,0
122783,12783,"La Coopérative",43.5465880076,5.2934333138,0
132365,80,"La Coopérative",43.5466070839,5.293598906,0
133019,734,"La Crémade",43.5413734371,5.2998066892,0
133020,735,"La Crémade",43.5413079666,5.2999392949,0
134329,12779,"La Recense",43.5492386253,5.3016078945,0
122781,12781,"Saint Remy",43.5460918566,5.332374283,0
122782,12782,"Saint Remy",43.5460366753,5.3319316668,0
122767,12767,"Vignes Longues",43.5470712554,5.3103139425,0
122768,12768,"Vignes Longues",43.5472152351,5.3112503504,0
122755,12755,"Val Lourdes",43.5447957147,5.2787437925,0
122756,12756,"Val Lourdes",43.5448974288,5.2793432854,0
122773,12773,"Vignes Longues Hautes",43.5468052293,5.3195552174,0
122774,12774,"Vignes Longues Hautes",43.5467626803,5.3204038568,0
133458,1173,"La Fille Du Puisatier",43.4317624962,5.2840942512,0
133459,1174,"La Fille Du Puisatier",43.4324388208,5.2842732865,0
122877,12877,"Roucas L'Escounière",43.4573730185,5.2490229656,0
122878,12878,"Roucas L'Escounière",43.4574541175,5.2488920662,0
122869,12869,"Salvator Allende",43.4522790178,5.2447118668,0
122870,12870,"Salvator Allende",43.4514913408,5.2447829486,0
122944,12944,"Moulin du Pont",43.5430887332,5.2590871122,0
122945,12945,"Moulin du Pont",43.5416379543,5.2611842676,0
132413,128,"Brassens",43.6912793773,5.5026213168,0
134052,18278,"Brassens",43.6911898593,5.5026062728,0
124582,14582,"Fontaine Maurel",43.6890985424,5.4994443839,0
124560,14560,"Gare SNCF",43.6848228487,5.5037301852,0
133942,18657,"Gare SNCF Q2",43.6845604257,5.504282722,0
133958,18649,"Gare SNCF Q4",43.6845311198,5.5044004045,0
134017,18655,"Gare SNCF Q1",43.6845789627,5.5042256459,0
134133,18651,"Gare SNCF Q5",43.6845126054,5.504456707,0
124622,14622,"Hameau de Beaumont",43.695785405,5.4863787326,0
134054,18294,"Hameau de Beaumont",43.6953423395,5.4859156687,0
124581,14581,"La Treille Muscate",43.6913791424,5.4965498217,0
132400,115,"La Treille Muscate",43.6914488811,5.4961252032,0
124592,14592,"Le Gué",43.6953424447,5.4959488979,0
132403,118,"Le Gué",43.6951964383,5.4957501845,0
124562,14562,"Les Genêts",43.6905779789,5.5197944247,0
124563,14563,"Les Genêts",43.6906698367,5.5197298183,0
132406,121,"Les Jardins",43.6981942367,5.5018747363,0
134059,14599,"Les Jardins",43.6986958517,5.5024868906,0
132409,124,"Les Moulières",43.6972554767,5.4822258528,0
132423,138,"Les Moulières",43.6969413137,5.4820473375,0
124904,14904,"Lubéron",43.6959545483,5.5120821317,0
134012,18277,"Lubéron",43.6959006605,5.5121558453,0
132398,113,"Pierre Plantée",43.6941883996,5.491216344,0
134042,14553,"Pierre Plantée",43.6941411107,5.4916430052,0
132411,126,"Plaine du Château",43.6887553928,5.5027980547,0
132412,127,"Plaine du Château",43.6887746528,5.5027162205,0
124616,14616,"République",43.6916446725,5.5000489883,0
124617,14617,"République",43.6914141231,5.5006273959,0
123924,13924,"Verdun",43.6946928298,5.5105496439,0
123925,13925,"Verdun",43.6944377919,5.5100433953,0
124881,14881,"Vieux moulin",43.6896826001,5.4989282172,0
134060,14882,"Vieux moulin",43.6897918813,5.4989211067,0
133323,1038,"Aigues Marines",43.4706802916,5.5040218114,0
133324,1039,"Aigues Marines",43.4706383005,5.5042649353,0
123966,13966,"Quai Saint Louis N°3",43.5303706439,5.452671382,0
123967,13967,"Quai Saint Louis N°2",43.5305834014,5.4524674128,0
127241,17241,"Centre Médical",43.638558437,5.6182360517,0
127242,17242,"Centre Médical",43.6386820549,5.6179420098,0
133380,1095,"D07",43.5840474298,5.4567962629,0
133379,1094,"D06",43.5878265634,5.4571798382,0
122861,12861,"Les Pinchinades/ Rd9",43.4393317209,5.2856802506,0
124011,14011,"Les Pinchinades/ Rd9",43.4382400823,5.2856841904,0
124907,14907,"Bonnaud",43.6898337039,5.5045299906,0
134011,18276,"Bonnaud",43.6898911668,5.5044107624,0
134097,11163,"Avenue des Ecoles",43.4528120262,5.4700053972,0
134128,17904,"Avenue des Ecoles",43.4527413526,5.4699614055,0
120188,10188,"CLG Jas Bouffan",43.5252448312,5.422215025,0
133286,1001,"Gare du Pey Blanc",43.5455121054,5.3981638456,0
133287,1002,"Gare du Pey Blanc",43.5456901728,5.3983866829,0
134000,18081,"Puyricard Centre",43.5806093733,5.4226400425,0
134001,18083,"Puyricard Centre",43.5805110728,5.4225388422,0
133415,1130,"Jeanne d'Arc",43.381448092,5.34680999,0
133416,1131,"Jeanne d'Arc",43.3814830262,5.3468873426,0
122902,12902,"Griffon Clinique",43.4272531962,5.2707583043,0
122905,12905,"Mairie Quartier Sud",43.4260161362,5.2789448074,0
122906,12906,"Mairie Quartier Sud",43.4259024624,5.2792381778,0
122761,12761,"Les Bonfils",43.54083384,5.2967712968,0
122762,12762,"Les Bonfils",43.5409232933,5.2968300196,0
133422,1137,"Mitterrand",43.3788361812,5.3517353501,0
133423,1138,"Mitterrand",43.3782956723,5.352009741,0
134502,21003,"Les Tabors",43.3801813535,5.348454127,0
132624,339,"Domaine Fleurs",43.5341523064,5.4083411242,0
132625,340,"Domaine Fleurs",43.5338062561,5.4081749504,0
132627,342,"Triolet",43.5316704754,5.4078461757,0
132628,343,"Triolet",43.5318509123,5.4079849001,0
132639,354,"La Molière",43.5250682348,5.3948302919,0
132640,355,"La Molière",43.5250482628,5.3943842398,0
132771,486,"Bessi",43.579312906,5.4108872317,0
134441,18080,"Bessi",43.5794346281,5.4108373331,0
132643,358,"CIAM",43.5248010428,5.3898903029,0
132768,483,"Palatines",43.5802018835,5.4135472638,0
132769,484,"Palatines",43.5801185122,5.4137902267,0
133314,1029,"PAE La Pile Budéou",43.6126863771,5.3240443034,0
133315,1030,"PAE La Pile Budéou",43.6126532424,5.3238599765,0
121889,11889,"Sainte Elisabeth",43.4012043848,5.3373420595,0
122911,12911,"Fontblanche",43.4223846392,5.2862480875,0
122912,12912,"Fontblanche",43.4222360071,5.2862982665,0
133577,1292,"Clos de la Cadière",43.4177967895,5.2931541201,0
134555,26448,"Clos de la Cadière",43.4176469266,5.293208069,0
133424,1139,"Gavotte Mairie",43.3798843133,5.3507548456,0
133425,1140,"Gavotte Mairie",43.3796853268,5.350916217,0
124012,14012,"Pierre Plantée Quai 03",43.4466084385,5.2486890567,0
133417,1132,"Monaco",43.3849417006,5.3451647802,0
133418,1133,"Monaco",43.3849914464,5.3454363435,0
133419,1134,"Octroi",43.3748627435,5.3541737782,0
133420,1135,"Octroi",43.3753636616,5.353747861,0
133469,1184,"La Rastelido",43.4182843932,5.2980778628,0
122897,12897,"Bastide Blanche",43.431290327,5.2661534538,0
122898,12898,"Bastide Blanche",43.4309434642,5.2662182305,0
122903,12903,"CLG Beauvoir",43.4275884573,5.2762778629,0
122904,12904,"CLG Beauvoir",43.4274493633,5.2764319,0
122907,12907,"Le Repos",43.4251277487,5.2821680763,0
122908,12908,"Le Repos",43.4247070596,5.282548207,0
122909,12909,"Ecole Le Repos",43.4237099208,5.2843183338,0
122910,12910,"Ecole Le Repos",43.4234719985,5.284386286,0
122857,12857,"Bd D. Padovani",43.4369255604,5.2572424287,0
122858,12858,"Bd D. Padovani",43.4367404041,5.2571890206,0
122859,12859,"Grand Vitrolles",43.4344041547,5.2607272194,0
122860,12860,"Grand Vitrolles",43.434570565,5.2607256905,0
122837,12837,"Victor Gélu",43.4428826759,5.2453731649,0
122838,12838,"Victor Gélu",43.4428970956,5.2449218702,0
122851,12851,"Médiathèque",43.4444907778,5.2515952098,0
122852,12852,"Médiathèque",43.4437052765,5.2518352326,0
132629,344,"Eridan",43.5312332493,5.4093833996,0
132630,345,"Eridan",43.5313224618,5.4094090559,0
124636,14636,"Croze Cascabel",43.4243946948,5.2904309628,0
124637,14637,"Croze Cascabel",43.4242305685,5.29039011,0
133995,17696,"Auriol",43.5378443373,5.4467671035,0
127443,17443,"Silvacane",43.5307642343,5.4396661508,0
133594,1309,"Hamamélis",43.6914012704,5.5273532932,0
133602,1317,"Hamamélis",43.6914573452,5.5271294011,0
134223,17936,"Fontvenelle",43.4588923469,5.45917598,0
134224,17938,"Fontvenelle",43.4589424464,5.459620111,0
132454,169,"Ecole Militaire",43.5262831033,5.4558108677,0
132455,170,"Ecole Militaire",43.5263993902,5.4563000769,0
132448,163,"Ecole La Torse",43.5247590442,5.4670218216,0
132467,182,"Ecole La Torse",43.5251703451,5.4667183171,0
121672,11672,"Les Trois Gares",43.6430602407,5.5410946938,0
121673,11673,"Les Trois Gares",43.6431520339,5.5408048799,0
132320,35,"De Broglie",43.4906349288,5.3561711043,0
132321,36,"De Broglie",43.4905870714,5.3562743507,0
133951,14840,"Verte Campagne",43.5759397202,5.424776315,0
133952,14841,"Verte Campagne",43.5759021722,5.4247131992,0
132845,560,"Palerne",43.5774129542,5.4220080423,0
132846,561,"Palerne",43.577390293,5.4222898314,0
132827,542,"La Trévaresse",43.5925684894,5.4349989139,0
132828,543,"La Trévaresse",43.5928136918,5.4353486783,0
132831,546,"Quille",43.5875115097,5.4311406341,0
132832,547,"Quille",43.5874092277,5.4316107325,0
132835,550,"Les Camus",43.5864769065,5.4214714121,0
132836,551,"Les Camus",43.5868194325,5.4215247151,0
132837,552,"Maurel",43.5835121878,5.4220962326,0
132838,553,"Maurel",43.5834717551,5.4220159408,0
132304,19,"Eiffel",43.481308844,5.3875717205,0
132307,22,"Eiffel",43.4821441175,5.3853451574,0
122891,12891,"Pas du Boeuf",43.4380022216,5.2623517857,0
122892,12892,"Pas du Boeuf",43.4380528772,5.262390626,0
133679,1394,"Monod Parking Nord",43.3998947353,5.3344761178,0
134503,25223,"CADENEAUX STADE",43.3969082737,5.340035289,0
134504,25674,"CADENEAUX STADE",43.3971027626,5.3401557077,0
132445,160,"Saint Germet",43.4213504661,5.2900248974,0
133892,1607,"Saint Germet",43.4213783106,5.2901574209,0
133473,1188,"Ch. du Pas de la Mue",43.414773732,5.3002880595,0
133474,1189,"Les Pinchinades-M.Pagnol",43.4256670531,5.2947001955,0
133475,1190,"Les Pinchinades-M.Pagnol",43.4256774987,5.2944423951,0
132926,641,"Rose",43.5608551225,5.4336773686,0
133977,14865,"Rose",43.5611173737,5.4337851217,0
127806,17806,"La Prise",43.6632033873,5.4954404288,0
133436,1151,"Les Rigauds",43.4275518305,5.4895089395,0
133437,1152,"Les Rigauds",43.4274728785,5.4897483114,0
134078,17513,"L'Agnel",43.5974766621,5.4817901332,0
134468,14897,"Station",43.5949269374,5.4827821358,0
134027,17873,"Camp des Milles",43.5030145091,5.3810789983,0
134028,17875,"Camp des Milles",43.5030967474,5.3807142452,0
134248,18122,"Plan d'Aillane Quai 04",43.4980312223,5.370401831,0
134465,18134,"Plan d'Aillane Quai 10",43.4978531734,5.3705367825,0
134113,17948,"La Pinède du Claou",43.4477739172,5.4846487256,0
134206,11182,"La Pinède du Claou",43.4477836538,5.4847773357,0
134311,11890,"EREA Louis Aragon",43.3969353951,5.3211361585,0
133350,1065,"Gare Routière Quai 18",43.5233289736,5.439754719,0
133940,18114,"Gare Routière Quai 20",43.5233369296,5.439595236,0
134075,14979,"Gare Routière Quai 13",43.5233117003,5.4401601351,0
134231,18106,"Gare Routière Quai 16",43.523323218,5.4399158666,0
134260,18112,"Gare Routière Quai 19",43.5233334796,5.4396761649,0
134454,18108,"Gare Routière Quai 17",43.523325457,5.439837962,0
134470,14970,"Gare Routière Quai 04",43.5232536071,5.4414378446,0
134471,14971,"Gare Routière Quai 05",43.523258314,5.4413523488,0
134131,18153,"Jean de Roy",43.6479409708,5.5989469528,0
134132,18155,"Jean de Roy",43.6478095267,5.5988310368,0
134092,18150,"Centre Technique",43.5551548576,5.5948370432,0
134093,18152,"Centre Technique",43.5552366229,5.5949221006,0
134246,17353,"Les Pins / Cinéma",43.4396417155,5.2554048073,0
134247,17354,"Les Pins / Cinéma",43.4395143573,5.25525099,0
133987,17217,"Colonel Bellec",43.5750584116,5.418034839,0
133988,17218,"Colonel Bellec",43.5751175791,5.4180890636,0
132620,335,"Gare Aix TGV",43.4545607118,5.3164281755,0
134249,18172,"Gare TGV",43.4553820673,5.3160766592,0
134169,17945,"Puits de Coudeil",43.436536375,5.5358923569,0
134170,17947,"Puits de Coudeil",43.4366133614,5.535874288,0
133941,18323,"Archives",43.5270225125,5.438963972,0
132393,108,"Herborn",43.6817376207,5.501797143,0
132394,109,"Herborn",43.6816667213,5.5017606699,0
132418,133,"Hôpital",43.6941635107,5.498546801,0
132419,134,"Hôpital",43.6941088867,5.4986460545,0
132440,155,"Mauron",43.7001788853,5.5005683191,0
132441,156,"Mauron",43.7002192631,5.5007642992,0
132416,131,"Parking Dévalade",43.6956361334,5.5000248369,0
132417,132,"Parking Dévalade",43.6956212907,5.5001479962,0
133945,14361,"Ecole Eugène Bremond",43.5779329578,5.4226183997,0
127407,17407,"Le Petit Colomblier",43.6361980701,5.6430903091,0
127569,17569,"Centre Commercial",43.6421329356,5.5342414241,0
127571,17571,"Centre Commercial",43.6420785944,5.5342538624,0
133582,1297,"Angenot",43.5091404724,5.3923018285,0
133291,1006,"B20",43.5659556626,5.4027869622,0
133316,1031,"B20",43.5656795565,5.4034833911,0
134463,17800,"Baltard",43.4851394139,5.3840588182,0
134464,17810,"Baltard",43.4848327312,5.3837321408,0
134510,17860,"Bull",43.4857412577,5.3423573906,0
134511,17866,"Bull",43.4856665399,5.3423357094,0
133330,1045,"C04",43.5859534313,5.3700073807,0
134105,14708,"Caire",43.482622022,5.4218501672,0
133318,1033,"Calisson",43.5815188857,5.3774197892,0
133319,1034,"Calisson",43.5797213547,5.3799679256,0
120156,10156,"Cc Les Milles",43.5043340994,5.3947703476,0
122294,12294,"Collongue",43.5398726515,5.496923707,0
134552,26206,"Collongue",43.5399703606,5.4966199964,0
120157,10157,"Couton",43.5032744174,5.390941262,0
134104,14426,"De Green",43.487940415,5.4209603819,0
132711,426,"Ferry",43.522128955,5.4494944285,0
124894,14894,"Fontlèbre",43.5506683286,5.4568241893,0
132573,288,"Fontlèbre",43.5509044034,5.4570589054,0
133954,15076,"Galilée",43.4886634183,5.3411336169,0
133955,15077,"Galilée",43.4889218508,5.3411788427,0
134020,10160,"Gare des Milles",43.5033417225,5.3834278191,0
132401,116,"Infirmeries",43.5132254131,5.4637812369,0
132402,117,"Infirmeries",43.5130873264,5.4636578245,0
124558,14558,"La Petite Mignarde",43.5669233872,5.465242264,0
124559,14559,"La Petite Mignarde",43.567376452,5.4655933401,0
122289,12289,"Les Chênes",43.5355935149,5.4712268211,0
134090,12290,"Les Chênes",43.5357524673,5.4718707101,0
132710,425,"Libérateurs",43.4817935536,5.4230653448,0
120159,10159,"Mairie - Milles",43.50331042,5.3857706845,0
132709,424,"Mavel",43.4894228105,5.4160959721,0
120080,10080,"Moulin",43.5357920078,5.4576959007,0
120081,10081,"Moulin",43.5364565071,5.457617048,0
132385,100,"Parc Jourdan",43.5202668462,5.4496989592,0
132574,289,"Parc Rambot",43.5309356356,5.455961191,0
132609,324,"Parc Rambot",43.5307564805,5.4558579256,0
133414,1129,"P+R Route Alpes",43.5405110497,5.4572967259,0
133939,17897,"P+R Route Alpes",43.5404375922,5.4571930275,0
125044,15044,"Peytral",43.5321016667,5.4568909703,0
133956,17151,"Pléiades",43.4912505559,5.3405561059,0
133957,17152,"Pléiades",43.4910798419,5.3403078024,0
133529,1244,"Stade Ouest",43.5283841452,5.4246427646,0
133527,1242,"Vendôme",43.5313056548,5.4416781432,0
133959,10121,"Verte Colline",43.5365262892,5.4349663587,0
133960,10122,"Verte Colline",43.5370192549,5.4347913997,0
124282,14282,"Gautier",43.5113891842,5.5458510354,0
120573,10573,"Beausoleil",43.4646214138,5.4141911583,0
124927,14927,"Beausoleil",43.4646320135,5.4139378279,0
134073,14027,"CLG Georges Brassens",43.4373739187,5.4089862618,0
120579,10579,"Clos des Ecrivains",43.4451594827,5.4319673779,0
124152,14152,"Clos Riant / Les Frènes",43.4366533464,5.4223699837,0
124930,14930,"Clos Riant / Les Frènes",43.4364773214,5.4216462204,0
120563,10563,"Collet Blanc",43.4475778725,5.438142937,0
124931,14931,"Collet Blanc",43.4477324266,5.4383588481,0
120565,10565,"Cougnaou",43.4465139136,5.4109896728,0
124932,14932,"Cougnaou",43.4463797978,5.4108042571,0
120559,10559,"Ecole des Pins",43.4524281425,5.4172622853,0
134074,14092,"Jean Perrin",43.443826621,5.422380148,0
120569,10569,"La Babiole",43.4362805697,5.4042308522,0
120570,10570,"La Babiole",43.4360444537,5.403718371,0
127647,17647,"Le Clos des Poètes",43.4428169957,5.4343031874,0
120590,10590,"Les Amandiers",43.4588013615,5.399496936,0
124032,14032,"Les Micocouliers",43.45019935,5.4253800938,0
124033,14033,"Les Micocouliers",43.4499923735,5.4259730423,0
124947,14947,"Les Platanes",43.4473225389,5.4190127302,0
127442,17442,"Les Platanes",43.4473797196,5.4190181235,0
124083,14083,"Les Terres Blanches",43.4538948864,5.4175896759,0
124084,14084,"Les Terres Blanches",43.4543328559,5.4175669539,0
127525,17525,"Les Terres de la Mûle",43.459252804,5.4027589631,0
124018,14018,"Les Tihous",43.4333303729,5.4118584007,0
120595,10595,"Lou Cantounet",43.43951161,5.4168072059,0
124934,14934,"Lou Cantounet",43.4396717951,5.4169060772,0
120596,10596,"Montaury",43.4398796129,5.405398729,0
124935,14935,"Montaury",43.4402197871,5.4053753064,0
120547,10547,"Plein Soleil",43.4472017195,5.4161192717,0
120548,10548,"Plein Soleil",43.4472067017,5.416692764,0
127508,17508,"Restanques",43.4616419903,5.4182158454,0
124034,14034,"Rhin et Danube",43.461105348,5.4103489356,0
124035,14035,"Rhin et Danube",43.461086754,5.4104096718,0
124016,14016,"Vaunière",43.4439621194,5.4056167906,0
124017,14017,"Vaunière",43.4436587052,5.405494066,0
127462,17462,"Village",43.4516998502,5.4136322515,0
127464,17464,"Village",43.452057317,5.4133181511,0
127465,17465,"Calas Village",43.4607896689,5.3536374221,0
120695,10695,"Domaine de l'Arbois",43.4698051277,5.3439939303,0
120694,10694,"L'Eclair",43.4621606661,5.3438322466,0
124123,14123,"L'Eclair",43.4622000813,5.3429021355,0
120685,10685,"La Trébillane",43.4608424067,5.3560516393,0
120686,10686,"La Trébillane",43.4611913588,5.35691888,0
132619,334,"Lac Bleu",43.4553131038,5.3309891319,0
132588,303,"Le Boulard",43.4507117927,5.3620096793,0
134564,29342,"Le Boulard",43.4514895561,5.36085336,0
124102,14102,"Le Gay",43.4649448746,5.364984626,0
127562,17562,"Les Pitalugues",43.4430101133,5.3656912432,0
127564,17564,"Les Pitalugues",43.4428050942,5.3639446997,0
120784,10784,"La Gavotte",43.4887676369,5.5929514242,0
120985,10985,"Le Garage",43.5672631634,5.3721260371,0
120986,10986,"Le Garage",43.5674232089,5.3720719188,0
124494,14494,"Serpentine",43.5460279682,5.36626937,0
124495,14495,"Serpentine",43.5460910099,5.3662263428,0
133562,1277,"Surville",43.5724363863,5.357790306,0
133563,1278,"Surville",43.5718940645,5.357282267,0
134208,17909,"Brossolette Lycée Fourcade",43.4566701846,5.4784007249,0
134209,17911,"Brossolette Lycée Fourcade",43.4566092352,5.478408954,0
133012,727,"Quatre Termes",43.4408681172,5.5292568587,0
133013,728,"Quatre Termes",43.4402183321,5.5294073141,0
134318,11154,"Valabre",43.4720222089,5.4534698995,0
121664,11664,"La Baraque",43.63533944,5.5168719059,0
121665,11665,"La Baraque",43.6345264226,5.5167971824,0
121666,11666,"La Carrière",43.6302889725,5.5120330837,0
121667,11667,"La Carrière",43.6297981873,5.5111319253,0
133442,1157,"La Source",43.4251695059,5.4868581666,0
124188,14188,"La Tour",43.4172964123,5.5049283373,0
124189,14189,"La Tour",43.4174224432,5.5050008555,0
125046,15046,"Les Moulières / La Source",43.4237109139,5.4801732949,0
125047,15047,"Les Moulières / La Source",43.4238879006,5.4792698972,0
124446,14446,"Les Saugeonnes",43.417626947,5.4989942333,0
124447,14447,"Les Saugeonnes",43.4186426876,5.4992816628,0
124210,14210,"Sire Marin",43.4251687445,5.4700661998,0
124211,14211,"Sire Marin",43.4253516236,5.4694599967,0
133434,1149,"Super Gassin",43.4171950662,5.5142904416,0
133476,1191,"Val de Croy",43.4216664187,5.2972348697,0
133477,1192,"Val de Croy",43.421779371,5.2972561307,0
134242,18177,"Boudian",43.4498527604,5.6005216243,0
134243,18192,"Les Michels Bas 2",43.448486878,5.6044513843,0
121943,11943,"Centre Peyrolles",43.646329398,5.5869969866,0
121944,11944,"Centre Peyrolles",43.6464471159,5.586522103,0
134085,18077,"Terra Soléa",43.645950231,5.5781961398,0
134086,18079,"Terra Soléa",43.6458782922,5.5773318616,0
124244,14244,"Le Lavoir",43.5248649225,5.6730721745,0
124245,14245,"Le Lavoir",43.5251198578,5.6717719971,0
122090,12090,"Légion Etrangère",43.5237625202,5.6985698822,0
124300,14300,"Lot Ste Victoire",43.526089273,5.6861152096,0
124301,14301,"Lot Ste Victoire",43.5260403725,5.6863866428,0
122077,12077,"Eglise Vieille",43.6591961899,5.4134663745,0
133367,1082,"La Roubine",43.6630354086,5.441403208,0
133368,1083,"La Roubine",43.6630890422,5.4412582114,0
133544,1259,"Coste",43.6927149377,5.3364799201,0
133545,1260,"Coste",43.6926016131,5.3365119222,0
133495,1210,"La Clairière",43.4847064845,5.6080429209,0
133497,1212,"Nouveau",43.4850733054,5.6238677972,0
122197,12197,"Perroy",43.469097892,5.6081300766,0
122198,12198,"Perroy",43.4692933839,5.6074674079,0
122241,12241,"Le Bouquet",43.5230024222,5.5680601566,0
124451,14451,"Cimetière",43.4292575852,5.4406460628,0
124449,14449,"La Roque",43.4293477042,5.4524483056,0
124042,14042,"Centre Commercial du Moulin",43.4335400757,5.4303851371,0
124043,14043,"Centre Commercial du Moulin",43.4335407996,5.4305949755,0
133508,1223,"Les Mérentiers",43.4155793815,5.4445490367,0
133502,1217,"Les Putis",43.419702442,5.4593088231,0
124674,14674,"Montée des Pins",43.4427735176,5.4399208331,0
122661,12661,"La Cause",43.5107474089,5.4927969202,0
134437,12660,"La Cause",43.5102542641,5.492282331,0
122680,12680,"Chemin St Francois",43.5547630263,5.5766108901,0
122682,12682,"Les Cabassols",43.5538538135,5.5803060833,0
122683,12683,"Les Cabassols",43.553374133,5.582088442,0
122679,12679,"Les Plaines",43.5558274941,5.5702048705,0
125019,15019,"Les Plaines",43.555891402,5.5703236682,0
132286,1,"Saint Pierre",43.5552162109,5.6114754098,0
133400,1115,"Les Bigourdins",43.6090083506,5.4668723356,0
133401,1116,"Les Bigourdins",43.6081424564,5.4661772794,0
122719,12719,"Les Floralies",43.5760040942,5.4691852527,0
122720,12720,"Les Floralies",43.5760549568,5.4690596809,0
134079,17768,"Mairie",43.5985019587,5.4845378544,0
123980,13980,"Sainte Michelle",43.5441152332,5.2971900677,0
123981,13981,"Sainte Michelle",43.5441421924,5.2970678221,0
122887,12887,"La Vallée",43.4453527858,5.2564226356,0
122888,12888,"La Vallée",43.4453748592,5.2562301361,0
122883,12883,"Les Hermes",43.4506345722,5.252326189,0
122884,12884,"Les Hermes",43.4506216657,5.2522630414,0
133462,1177,"Les Pierres Fauves",43.4357529189,5.2854180345,0
122871,12871,"Les Roses",43.453965462,5.243576214,0
122872,12872,"Les Roses",43.4537723538,5.2434838547,0
124614,14614,"Boiry",43.695096204,5.5289603383,0
124615,14615,"Boiry",43.6950751271,5.5287979793,0
124908,14908,"Chapelle St-Roch",43.6878690244,5.5055752657,0
134006,17392,"Chapelle St-Roch",43.687977391,5.5056378486,0
134015,18282,"Delsome",43.6836463199,5.507736832,0
134016,18284,"Delsome",43.6835369731,5.5078229439,0
133600,1315,"Farigoule",43.6914311742,5.5244291455,0
132430,145,"Jean Moulin",43.7000836476,5.5054793487,0
132431,146,"Jean Moulin",43.7002137677,5.5053749882,0
132397,112,"La Croix de Gon",43.6979624303,5.4785964034,0
123919,13919,"La Piscine",43.6893143765,5.5226511308,0
132391,106,"Lamartine",43.6913899492,5.5150062906,0
132392,107,"Lamartine",43.6917614714,5.5154508443,0
133603,1318,"Le Claux",43.6940778,5.5310063466,0
133604,1319,"Le Claux",43.6941401883,5.531026115,0
123681,13681,"Leclerc",43.6935267116,5.5037147032,0
132388,103,"Léon Arnoux",43.6903857027,5.5069928364,0
132390,105,"Léon Arnoux",43.6905239733,5.5068021697,0
124916,14916,"Les Festons",43.6929326909,5.5080278886,0
134014,18281,"Les Festons",43.6928817888,5.5081149407,0
123827,13827,"Lycée Val de Durance",43.7088484166,5.5057302608,0
132410,125,"Notre Dame des Anges",43.6945238451,5.4890032672,0
132425,140,"Notre Dame des Anges",43.6943776842,5.488886703,0
124564,14564,"Pierre Augier",43.6914484209,5.5175719566,0
124565,14565,"Pierre Augier",43.6913391428,5.5176937085,0
124602,14602,"Rollin",43.6915252768,5.5046712494,0
124603,14603,"Rollin",43.6914719239,5.5046884304,0
134040,18255,"Saint Martin",43.6800152481,5.5022097308,0
134041,18257,"Saint Martin",43.6799754373,5.5021099108,0
134009,18246,"Sanclar",43.6969972638,5.5183922539,0
134010,18248,"Sanclar",43.6968999434,5.5184131693,0
132387,102,"Trésorerie",43.6773335364,5.5033971288,0
132389,104,"Trésorerie",43.6774343561,5.5033717417,0
132414,129,"Victor Hugo",43.6919432642,5.4989118149,0
132415,130,"Victor Hugo",43.6920253862,5.4991031074,0
124590,14590,"ZAC Terre du Fort",43.6768667817,5.5009396157,0
134122,14838,"Vallon Sources",43.5383543616,5.4689571991,0
134123,14839,"Vallon Sources",43.538124793,5.469313219,0
122895,12895,"Croix Route",43.4322658323,5.2653341687,0
122896,12896,"Croix Route",43.432251811,5.265270981,0
122893,12893,"Les Terrasses",43.4358643925,5.263751197,0
122894,12894,"Les Terrasses",43.436163191,5.2634278734,0
133290,1005,"B19",43.5681050358,5.3994278867,0
133292,1007,"B21",43.5580890137,5.4158288486,0
134250,18161,"Baumel",43.5348581869,5.410085904,0
134251,18163,"Baumel",43.5350295418,5.4100696185,0
133293,1008,"C02",43.5775741039,5.3835929484,0
133317,1032,"C02",43.5777900974,5.3834289417,0
133294,1009,"C03",43.5843498326,5.3723821933,0
133331,1046,"C05",43.5964150317,5.3664434456,0
133332,1047,"C06",43.6019643522,5.3660532886,0
134072,18618,"Cardinale",43.5245824607,5.4463237936,0
133528,1243,"Château Calade",43.5724358286,5.3912068712,0
133564,1279,"CLG Château Double",43.5315084268,5.4205550611,0
133590,1305,"CLG de la chesneraie",43.5731983154,5.4349210372,0
120189,10189,"Corsy",43.5281643743,5.4298860919,0
134574,23099,"Corsy",43.5283851618,5.4288897952,0
133411,1126,"D13 Bis",43.5798809814,5.4569769764,0
133373,1088,"D15",43.5742811129,5.4571149291,0
133374,1089,"D15",43.5743030979,5.4572491258,0
133523,1238,"De la Molle",43.5306702831,5.4381227361,0
133909,1624,"Dr Aurientis",43.5301133408,5.458816018,0
133412,1127,"Espérantistes 2",43.5383713124,5.4570299922,0
133413,1128,"Espérantistes 2",43.5386196703,5.4570729149,0
134254,18220,"Figons Bas",43.5394815362,5.3785031751,0
134255,18222,"Figons Bas",43.5396968276,5.3782039936,0
133516,1231,"Guyon",43.5337633144,5.4363967239,0
133517,1232,"Guyon",43.5347490201,5.4360939661,0
134137,18042,"Hameau de Turin",43.4770390881,5.4285248427,0
134138,18044,"Hameau de Turin",43.4776018192,5.4268161296,0
133295,1010,"Huilerie",43.549286472,5.4273372929,0
133556,1271,"La Brédasque",43.5363598806,5.4115992326,0
120131,10131,"La Calade",43.568345375,5.3987627375,0
132918,633,"La Chesneraie",43.5725293174,5.4326463448,0
133887,1602,"La Chesneraie",43.572968222,5.4327103381,0
133566,1281,"La Mayanelle D17",43.5387063694,5.4132539296,0
133943,10185,"La Mayanelle",43.5384117569,5.4116369782,0
134302,10186,"La Mayanelle D17",43.5386183406,5.4131077815,0
120987,10987,"Les Figons",43.559894429,5.3815208364,0
127160,17160,"Les Figons",43.5595170813,5.3815061395,0
120154,10154,"Les Granettes",43.5350413959,5.3936879121,0
120155,10155,"Les Granettes",43.5351564049,5.394391018,0
133900,1615,"Lycée Duby B",43.4803819786,5.4123000439,0
133888,1603,"Maison d'Arrêt",43.4815259291,5.3957080994,0
134466,18789,"Maison d'Arrêt",43.4816341456,5.395459912,0
120106,10106,"Minimes",43.5286017809,5.4362752446,0
133571,1286,"Mouret-Gare Routière Quai 28",43.5225556375,5.4364998174,0
134071,18236,"Mouret-Gare Routière Quai 23",43.5228485841,5.4371043666,0
134094,18232,"Mouret-Gare Routière Quai 21",43.5231210014,5.4372883238,0
134256,18309,"Mouret-Gare Routière Quai 26",43.5229396219,5.436596344,0
134270,18238,"Mouret-Gare Routière Quai 24",43.5227063826,5.437044896,0
125064,15064,"Nativité",43.5124487945,5.4384011863,0
133518,1233,"Niollon",43.5275532003,5.4426788112,0
134003,18616,"Niollon",43.5279648396,5.4415399593,0
120117,10117,"Pontier",43.5328708566,5.436897694,0
120118,10118,"Pontier",43.532792495,5.4371600127,0
133567,1282,"Quai Saint Louis N°1",43.5309804931,5.4521483202,0
133524,1239,"Quai Saint Louis N°4",43.5299703169,5.4529856554,0
133525,1240,"Rocher Du Dragon",43.5327961169,5.4395392382,0
133526,1241,"Rocher Du Dragon",43.5331148594,5.4401847185,0
132453,168,"Sta. Carcassonne",43.5267538303,5.4592853865,0
134066,17232,"Sta. Carcassonne",43.5267047806,5.459309748,0
132997,712,"Tourelles",43.5173117178,5.4652738772,0
134069,18164,"Vallon des Gardes",43.5210091504,5.4769063545,0
134070,18166,"Vallon des Gardes",43.520869592,5.4758673798,0
120175,10175,"Vallon des Mourgues",43.5501204015,5.3908218054,0
120176,10176,"Vallon des Mourgues",43.5501224681,5.3905498625,0
133513,1228,"Le Pin",43.4192799276,5.3812980472,0
124024,14024,"Les Mûriers",43.4631896809,5.4090061995,0
124025,14025,"Les Mûriers",43.463096839,5.4089502826,0
124026,14026,"Les Mûriers",43.4626973812,5.4089234372,0
132583,298,"Avant Cap",43.4185553061,5.3607953969,0
120662,10662,"Centre Commercial de Calas",43.4652211963,5.3529550052,0
120663,10663,"Centre Commercial de Calas",43.4652684522,5.3525917011,0
134232,15054,"Foire",43.4192949482,5.3638409819,0
133862,1577,"Argelas",43.4838350364,5.5908300604,0
125087,15087,"Arsène Sari",43.4879252767,5.562111636,0
125088,15088,"Arsène Sari",43.4879314651,5.5623559704,0
124250,14250,"Ecole",43.4890709515,5.5659843428,0
124251,14251,"Ecole",43.4888880183,5.5656350547,0
125086,15086,"Ecole",43.4894633038,5.5662111067,0
120789,10789,"La Cardeline N7",43.489000504,5.552794882,0
120790,10790,"La Cardeline N7",43.4889643682,5.5541579524,0
120787,10787,"Village",43.4901921777,5.5672151145,0
120788,10788,"Village",43.4902356972,5.5668129714,0
133861,1576,"Piboulas",43.4928563816,5.5525120904,0
133864,1579,"Pinède",43.4854760343,5.5955049646,0
133863,1578,"Sainte Victoire",43.4830219396,5.5945251746,0
123945,13945,"Artaud",43.5683743571,5.3565828311,0
120989,10989,"Bompard",43.5444007406,5.3479901264,0
133285,1000,"Complexe Sportif",43.5735601696,5.3452747231,0
133326,1041,"De Gaulle",43.5646756843,5.3771418513,0
133327,1042,"De Gaulle",43.5653523535,5.3767078287,0
134252,18214,"Domaine des Plantiers",43.5417820251,5.3707403629,0
134253,18216,"Domaine des Plantiers",43.5417551031,5.3697374397,0
133560,1275,"Duby",43.5725787437,5.3533381951,0
133561,1276,"Duby",43.5714506378,5.3534750071,0
132339,54,"Ecole du Cros",43.5631985915,5.3539916924,0
127410,17410,"Fabrègues",43.5684201816,5.3438528915,0
120978,10978,"La Coopérative",43.5705263736,5.3558940665,0
120979,10979,"La Coopérative",43.570786646,5.3550287559,0
123957,13957,"Les Acacias",43.5708967044,5.3583320416,0
134572,28009,"Les Acacias",43.5711351988,5.3586887079,0
120994,10994,"Les Cardonniers",43.5603975674,5.3526788655,0
120995,10995,"Les Cardonniers",43.5610179511,5.352807465,0
120993,10993,"Les Grès Hauts",43.5507069384,5.3495551442,0
120972,10972,"Les Lampis",43.5652549062,5.3582563126,0
120981,10981,"Les Logissons",43.5712128072,5.362584863,0
120982,10982,"Les Logissons",43.5716692417,5.3610998321,0
124635,14635,"Les Robinsons",43.5632070926,5.3591181873,0
120997,10997,"Les Tasselles",43.5582064218,5.362046076,0
124488,14488,"Les Valladets",43.5445716068,5.359141209,0
124489,14489,"Les Valladets",43.5445134475,5.3590902203,0
121000,11000,"Rastel",43.5738575008,5.3446501871,0
125062,15062,"08-mai-45",43.4563004108,5.5583531737,0
125063,15063,"08-mai-45",43.4563229071,5.5585033739,0
124479,14479,"Grand Vallat",43.4519214496,5.5570673335,0
133033,748,"La Bégude",43.4530891615,5.5455022246,0
133034,749,"La Bégude",43.4530942969,5.5452540477,0
133029,744,"La Croix du Goi",43.4472990455,5.5658792643,0
124235,14235,"La Grande Bastide",43.4707785343,5.552875262,0
133031,746,"La Montjoie",43.4608379787,5.5681288096,0
133351,1066,"La Roquette",43.4730826778,5.5151147866,0
133051,766,"Les Beaumouilles",43.4633346874,5.5747774248,0
127651,17651,"Les Longs Cols",43.4540254248,5.57106692,0
127653,17653,"Les Longs Cols",43.4539852121,5.5717328984,0
134177,17239,"Les Quatre Chemins",43.4781274998,5.5369419745,0
134157,17989,"Les Revaux",43.4437874184,5.5523510317,0
134158,17991,"Les Revaux",43.4433536639,5.5517781295,0
134147,17880,"Les Rosiers",43.481319339,5.5341760876,0
134148,17882,"Les Rosiers",43.4813796151,5.5342666931,0
127494,17494,"Les Vertus",43.4454309832,5.5557470484,0
127496,17496,"Les Vertus",43.4453140189,5.5557859913,0
127476,17476,"Mime",43.4688770572,5.559853171,0
121142,11142,"Ouvière",43.4532483436,5.5540839968,0
127480,17480,"Pellegrin",43.4781381409,5.5687948362,0
127682,17682,"Rimbaud",43.4542018465,5.5645780228,0
127684,17684,"Rimbaud",43.4540923456,5.565081137,0
134176,18084,"Vieux Puits",43.4520567743,5.5882278304,0
134178,18086,"Vieux Puits",43.4519594473,5.5887709316,0
134228,18299,"Acacias",43.45681084,5.4586117831,0
134229,18301,"Acacias",43.4566709474,5.4585509093,0
134161,17901,"Anciens Combattants",43.4536174368,5.4761367022,0
134162,17903,"Anciens Combattants",43.453686597,5.4759622536,0
134200,11147,"Avenue de Nice",43.4596033498,5.4782083025,0
133486,1201,"Avon",43.4462561458,5.4583131525,0
133487,1202,"Avon",43.4464023628,5.4582331741,0
133840,1555,"Barême",43.4764124094,5.4643096836,0
134321,11162,"Bassin d'Eau",43.4509791013,5.4529081953,0
134179,11164,"Biver Centre",43.4345267431,5.4653061479,0
134181,17908,"Biver Centre",43.4344217593,5.4652047645,0
134222,11173,"Bompertuis",43.4532802811,5.4531461289,0
134562,29172,"Bompertuis",43.4532644223,5.4533836885,0
134324,11177,"Chabanu",43.4735858726,5.4654002186,0
134211,17917,"Château Pitty",43.453481405,5.4837743421,0
134450,18742,"Château Pitty",43.4535492977,5.483605234,0
134451,18743,"Château Pitty",43.453406388,5.4835711423,0
134323,11175,"Cité Centrale 1",43.4611820574,5.4773889707,0
134322,11174,"Cité Centrale 2",43.463258388,5.4794407575,0
134218,18302,"Claou",43.4501924606,5.4859483406,0
134219,18304,"Claou",43.4502083617,5.4858273078,0
134185,17933,"Font du Roy",43.4486390276,5.472899405,0
134186,17935,"Font du Roy",43.4487444169,5.4727547282,0
133824,1539,"Hameau de Payannet",43.4701588035,5.4740827078,0
134135,18040,"Hameau de Valabre",43.4712992692,5.4498113741,0
134136,18041,"Hameau de Valabre",43.4716392,5.4493297143,0
133825,1540,"Jean de Bouc 1",43.4629982989,5.4887012314,0
133826,1541,"Jean de Bouc 2",43.4603994915,5.4923371492,0
134225,17949,"La Plaine",43.4493031204,5.4494738693,0
134187,17954,"Les Azalées / La Poste",43.4375733851,5.4649966832,0
134188,17956,"Les Azalées / La Poste",43.436719999,5.4650387641,0
134189,17967,"Les Roseaux de Cézanne",43.4438453251,5.472665337,0
134190,17969,"Les Roseaux de Cézanne",43.4437931425,5.4724881251,0
133841,1556,"Lycée de Valabre",43.4695407006,5.4512608751,0
134319,11160,"Lycée de Valabre",43.4693859713,5.4509738294,0
134320,11161,"Lycée de Valabre",43.4694454992,5.4508589817,0
134205,11181,"Maison du Peuple",43.4565049874,5.4728743742,0
134191,17973,"Médiathèque",43.4510148601,5.4726183274,0
134192,17975,"Médiathèque",43.4511203661,5.47254695,0
134215,17976,"Notre Dame",43.4554637702,5.4844188563,0
134216,17978,"Notre Dame",43.4553442591,5.4842378942,0
134207,11185,"Parking Savine",43.4566453181,5.4745820065,0
134325,11183,"Payannet",43.4705306447,5.4658089584,0
133485,1200,"Péchiney",43.4533806863,5.4651329911,0
133860,1575,"Péchiney",43.4536627529,5.4652533461,0
133827,1542,"Pharmacie du Lycée",43.4567294765,5.4800313943,0
133490,1205,"Pilon du Roy",43.4303686578,5.4693179833,0
133859,1574,"Pilon du Roy",43.4314898515,5.4679130658,0
134226,17984,"Puits Morandat",43.4503586917,5.448035226,0
133830,1545,"Quartier Collevieille",43.4396368087,5.4560167645,0
133831,1546,"Rambert",43.4811971975,5.4700090629,0
133839,1554,"Roman",43.4787288936,5.4614211052,0
134139,18167,"Saint André",43.4649720474,5.464151362,0
134140,18169,"Saint André",43.4655435201,5.4632472135,0
134194,17992,"Saint Pierre Galetti",43.4401875774,5.4651780977,0
134195,17994,"Saint Pierre Galetti",43.4392456638,5.4649777457,0
134196,17995,"Sainte Barbe",43.4365829901,5.4623978042,0
134197,17997,"Sainte Barbe",43.4376160649,5.4613148633,0
133832,1547,"San Bovieri",43.4411076843,5.4711229319,0
133834,1549,"Square Veline",43.4524798233,5.4730411738,0
134227,17998,"Zone d'Activités Avon",43.4484852164,5.4559141111,0
134153,17957,"Les Gournauds",43.4212930605,5.5438563898,0
134154,17959,"Les Gournauds",43.4218985555,5.5437591942,0
121318,11318,"Le Deffend",43.6309482465,5.63607725,0
133569,1284,"MFR Garachon",43.6750363669,5.2168326827,0
133312,1027,"National",43.6535909193,5.2602547534,0
133303,1018,"Saint Louis",43.648307714,5.2650400887,0
133304,1019,"Saint Louis",43.6486088538,5.2650880591,0
133301,1016,"Valdenan",43.6441559866,5.2707969299,0
133302,1017,"Valdenan",43.6433869255,5.2717102981,0
121696,11696,"Bachasson",43.4871831462,5.5299439175,0
121697,11697,"Bachasson",43.4874305811,5.529523045,0
127114,17114,"Barlatier",43.4926494966,5.5270569882,0
127115,17115,"Barlatier",43.4924773382,5.527137728,0
121684,11684,"Hôtel de Ville",43.4863372736,5.4936197074,0
124328,14328,"Le Stade",43.4720322566,5.4969097928,0
133321,1036,"Les Bastidons",43.4751550096,5.5163267967,0
124482,14482,"Puskaric",43.4850382479,5.4915600218,0
133441,1156,"Bastides Neuves",43.4251279396,5.4922768613,0
133756,1471,"Darius Millhaud",43.4225433957,5.5012099146,0
133444,1159,"Ecole de la Tour",43.4165911779,5.5050929013,0
133440,1155,"Ecole des Moulières",43.4264995029,5.4794618066,0
133448,1163,"Font de Rigon",43.417282699,5.5171130329,0
133449,1164,"Font de Rigon",43.4172680315,5.5174576872,0
133453,1168,"Giono",43.422753317,5.4981937723,0
133455,1170,"Grands Pins",43.4214971022,5.5242431017,0
133848,1563,"Grands Pins",43.4215443205,5.5241670678,0
133454,1169,"L'OPAC",43.4285000126,5.4798299783,0
133452,1167,"La Crèche de Mimet",43.4266730373,5.4873049083,0
133432,1147,"La Diote",43.4277599063,5.5235720959,0
133433,1148,"La Plaine",43.4189081486,5.5199000407,0
134336,14178,"La Plaine",43.4189450121,5.5198319141,0
133446,1161,"Le Moulin",43.4226996781,5.5256619735,0
133445,1160,"Le Portaou",43.4176373559,5.5177049143,0
133443,1158,"Les Fabres",43.4300223261,5.4728778193,0
133450,1165,"Les Geines",43.4242818395,5.5006226768,0
133451,1166,"Les Geines",43.4242938245,5.5005207662,0
133435,1150,"Les Vignes Basses",43.4219332485,5.5068999973,0
133777,1492,"Parking Sainte Anne",43.4123523408,5.5072502667,0
133488,1203,"Puits Gérard",43.4270602396,5.4748781808,0
133489,1204,"Puits Gérard",43.4272426293,5.4747532069,0
133447,1162,"Vallon",43.4284275289,5.5308717204,0
133737,1452,"Vallon",43.428509546,5.5309873616,0
133467,1182,"La Renardière",43.4131213108,5.3019627533,0
133468,1183,"La Renardière",43.4136434886,5.3007561783,0
132581,296,"Lami",43.4164642218,5.3541024244,0
133428,1143,"Le Clos Idéal",43.3915347752,5.3415748594,0
133429,1144,"Le Clos Idéal",43.3916395111,5.3414470167,0
133463,1178,"Les Cardelines",43.4245093505,5.2958418492,0
133464,1179,"Les Cardelines",43.424452266,5.2957509888,0
121837,11837,"Les Pins",43.4129667345,5.3733648119,0
121838,11838,"Les Pins",43.4130627036,5.3732303445,0
133472,1187,"Renardière Ecole",43.4169334317,5.2988877799,0
133479,1194,"Renardière Ecole",43.4170575461,5.2989527985,0
133421,1136,"Square De Gaulle Quai 1",43.4090729058,5.3219327236,0
133481,1196,"Square De Gaulle Quai 2",43.4093988504,5.321975151,0
133427,1142,"Vieille route de la Gavotte",43.3865448137,5.3448381824,0
127500,17500,"Domaine des Michels",43.4512033205,5.5934101772,0
133484,1199,"Ecole Jean Jaures",43.4488393355,5.640814039,0
127136,17136,"La Garenne",43.4506502337,5.6305370192,0
127137,17137,"La Garenne",43.4506949941,5.6305071864,0
124270,14270,"La Treille",43.4562790191,5.6075848762,0
124271,14271,"La Treille",43.4559339247,5.6072487599,0
127142,17142,"Les Chaurets",43.4521884319,5.6211334713,0
127143,17143,"Les Chaurets",43.4522323962,5.6206128164,0
134241,18175,"Les Garrigues",43.4503224061,5.6040222163,0
121912,11912,"Les Michels",43.4470565372,5.6017487018,0
121913,11913,"Les Michels",43.4469592722,5.6018419148,0
127139,17139,"Les Michels Bas",43.4486914443,5.6042678494,0
127140,17140,"Les Michels Bas",43.4488716768,5.6046647079,0
124229,14229,"Saint Charles",43.4627933023,5.6107750037,0
133037,752,"Saint Charles",43.4624893935,5.6104898078,0
133555,1270,"Collège Jean Jaurès",43.6466413037,5.5757717112,0
134239,18053,"Jauvade",43.5218355842,5.668014816,0
134240,18055,"Jauvade",43.5216875454,5.6677836793,0
124306,14306,"Maison Familiale",43.5231122967,5.6773877732,0
124307,14307,"Maison Familiale",43.5230033513,5.6773474112,0
133393,1108,"Avaux de Jean",43.6797282613,5.4069548239,0
133394,1109,"Avaux de Jean",43.6797479129,5.4073323577,0
133619,1334,"Avenue du Stade",43.6609336135,5.4270732134,0
133620,1335,"Avenue du Stade",43.6608788875,5.4268239916,0
133403,1118,"Barral",43.6545363051,5.4539081101,0
133404,1119,"Barral",43.654303389,5.4544211424,0
133355,1070,"Bas du Cours",43.6618574124,5.440801648,0
133405,1120,"Cabane",43.6578442141,5.4471126561,0
133406,1121,"Cabane",43.6580073608,5.4467568276,0
133363,1078,"CAT Philibert",43.6793114764,5.407139986,0
133821,1536,"CLG Le Puy Sainte Réparade",43.6648627181,5.4425350191,0
133360,1075,"Coopérative",43.6651390093,5.4352492732,0
133397,1112,"Coopérative",43.6650632879,5.435223475,0
133410,1125,"Ecole",43.6637634295,5.4395028699,0
123904,13904,"Ecoles maternelles et primaires",43.6645383035,5.4355728853,0
133618,1333,"La Cride",43.647427543,5.421865178,0
133356,1071,"Le Puits Neuf",43.6649959844,5.4288879093,0
133357,1072,"Le Puits Neuf",43.6648794912,5.429305217,0
133389,1104,"Les Bastides",43.6360815331,5.4604920692,0
133390,1105,"Les Bastides",43.6361382243,5.4603589362,0
133387,1102,"Les Danjauds",43.6414078003,5.4637238564,0
133388,1103,"Les Danjauds",43.641430638,5.4635950519,0
133361,1076,"Les Farandoles",43.6656104641,5.4312291084,0
133362,1077,"Les Farandoles",43.6658014014,5.4312758674,0
133625,1340,"Les Noisetiers",43.6224199585,5.4592127325,0
133760,1475,"Les Noisetiers",43.6226407503,5.4590816422,0
133395,1110,"Les Viaux",43.661430832,5.4407381648,0
133396,1111,"Les Viaux",43.6612366449,5.4408832526,0
122070,12070,"Lotis.Rousset",43.6589928233,5.4195457726,0
133621,1336,"Mazouillette",43.6534631577,5.4760550504,0
133622,1337,"Mazouillette",43.6533102612,5.4762479569,0
133366,1081,"Parking Cézanne",43.6633961362,5.4360358964,0
133624,1339,"Saint André",43.6515827969,5.4807908694,0
133407,1122,"Saint Estève",43.624983287,5.4595340662,0
133408,1123,"Saint Estève",43.6249416713,5.4589892726,0
133391,1106,"Saint Roch",43.6274932935,5.4613903556,0
133392,1107,"Saint Roch",43.6276474065,5.4609986582,0
133616,1331,"Usine à Maïs",43.6591484501,5.4603497796,0
133617,1332,"Usine à Maïs",43.6591802928,5.4603763035,0
133542,1257,"Caire Val",43.6964731044,5.3397080796,0
133543,1258,"Caire Val",43.6963751107,5.3397548322,0
133537,1252,"Collège des Garrigues",43.654149288,5.3264020753,0
133538,1253,"Collège des Garrigues",43.6541433336,5.3261292226,0
133345,1060,"Esplanade Saint Denis",43.6610837959,5.3533238299,0
133550,1265,"Estelan",43.6622123058,5.3388600119,0
133551,1266,"Estelan",43.6623700505,5.3387668704,0
133548,1263,"Garrigues",43.6642648182,5.3274681548,0
133549,1264,"Garrigues",43.6644680287,5.3269498919,0
133333,1048,"L' Etape",43.6266844359,5.3494479495,0
133334,1049,"L' Etape",43.6267003367,5.3493210954,0
133346,1061,"Saint Christophe",43.7086690603,5.36214401,0
133347,1062,"Saint Christophe",43.7087259875,5.3617161218,0
133546,1261,"Sousville",43.6824021713,5.3287184494,0
133547,1262,"Sousville",43.6824814505,5.3290231729,0
133851,1566,"MFR Roque d'Anthéron",43.7219190682,5.3118408984,0
133348,1063,"Silvacane",43.7149351738,5.3291606973,0
133349,1064,"Silvacane",43.7148349607,5.3294507441,0
133500,1215,"Aigue Vive",43.4861935749,5.6283911005,0
133492,1207,"Cabriliverni",43.4772652016,5.6486270483,0
133493,1208,"Coutaou",43.4891338041,5.641780316,0
133498,1213,"Gendarmerie",43.4794723924,5.616383223,0
133491,1206,"La France",43.4838684059,5.6363046972,0
133496,1211,"Les Planes Nord",43.4862850799,5.6212558978,0
127691,17691,"Peisson",43.4822804123,5.619915759,0
127693,17693,"Peisson",43.4823872508,5.6196563037,0
127131,17131,"Vacher",43.4643610847,5.6116118132,0
127132,17132,"Vacher",43.4642551153,5.6113618578,0
133539,1254,"Clos du Roy",43.6202952245,5.3070799741,0
133540,1255,"Clos du Roy",43.6202533451,5.3070901756,0
122296,12296,"J09",43.5455001323,5.5143939507,0
122297,12297,"J09",43.5454543097,5.5141170362,0
122291,12291,"Domaine Prignon",43.5380329438,5.484575382,0
122292,12292,"Domaine Prignon",43.5381136138,5.4844693211,0
132654,369,"J01",43.546186734,5.5197147276,0
132655,370,"J04",43.5494605627,5.5300107665,0
132656,371,"J04",43.5500644134,5.5320997385,0
133910,1625,"J05",43.5539431099,5.5314663549,0
133920,1635,"J08bis",43.5460505665,5.5080220961,0
133918,1633,"J14",43.543954623,5.5068400454,0
132657,372,"J15",43.5404233639,5.4913158971,0
133919,1634,"J18",43.5525248184,5.536154722,0
122298,12298,"Mairie",43.5476880671,5.5206578097,0
133511,1226,"Chemin du Canal",43.4265240073,5.4406290034,0
133512,1227,"Chemin du Canal",43.4264754786,5.442040809,0
133503,1218,"CLG de Simiane",43.4327729395,5.4384602073,0
124161,14161,"Hôtel de Ville",43.4306844513,5.4344227794,0
133507,1222,"La Chapelle",43.4137365178,5.441283074,0
133506,1221,"La Grenouille",43.4243946202,5.4502238135,0
133509,1224,"La Gréou",43.416230377,5.4469624148,0
133504,1219,"Le Chêne",43.4148451958,5.4635586928,0
133514,1229,"Le Jabouret",43.4271468914,5.4389860933,0
133505,1220,"Les Martinons",43.4175022856,5.4628408776,0
132726,441,"Les Ormeaux",43.4332850342,5.4256748104,0
132862,577,"Les Ormeaux",43.4334620254,5.4257753742,0
133515,1230,"Pignan",43.4197716853,5.4477778178,0
133510,1225,"Pont des Putis",43.4245920405,5.4477859626,0
122664,12664,"Les Artauds",43.5147214171,5.4994198096,0
122665,12665,"Les Artauds",43.5145554783,5.4997111106,0
127838,17838,"Mont Joli",43.5221282724,5.4866183387,0
127840,17840,"Mont Joli",43.5221813905,5.4866089046,0
132424,139,"Parc des Sports",43.5175166308,5.5029818405,0
132428,143,"Parc des Sports",43.5179051335,5.5036893234,0
134421,15113,"Allée du Parc",43.5978953598,5.4854063868,0
132408,123,"Le Grand Logis",43.60065202,5.4850702641,0
132407,122,"Le Grand Puits",43.601956587,5.4788380061,0
123807,13807,"Les Faurys",43.5946361658,5.4714263933,0
125108,15108,"Les Résidences",43.5967390693,5.4759100263,0
122743,12743,"Matins Clairs",43.5939716864,5.4760750319,0
125106,15106,"Val de Tourame",43.5903034283,5.4722590247,0
134420,12751,"Val de Tourame",43.5902234286,5.4721873419,0
123984,13984,"Ecole",43.5384587168,5.3027818903,0
122769,12769,"L'Etoile",43.5467763838,5.3240978198,0
122770,12770,"L'Etoile",43.5467053971,5.3238189899,0
123982,13982,"Les Claux",43.5436263437,5.299398783,0
123983,13983,"Les Claux",43.5435312397,5.2995051301,0
122771,12771,"Les Peyres",43.5465744148,5.3261560644,0
122772,12772,"Les Peyres",43.5465385185,5.3260313107,0
122775,12775,"Les Vences",43.5454514205,5.3412657264,0
122776,12776,"Les Vences",43.5450203321,5.3433442841,0
133893,1608,"19-mars-62",43.451801007,5.240215219,0
133470,1185,"La Cadière",43.4270482272,5.2910652374,0
133471,1186,"La Cadière",43.4271788512,5.2909339344,0
133894,1609,"La Plaine",43.4528539774,5.2414798982,0
127515,17515,"Parc du Griffon",43.4341403977,5.2792650762,0
127567,17567,"Parc du Griffon",43.4331763633,5.2801541593,0
122889,12889,"Le Liourat",43.4413623506,5.2596108194,0
122890,12890,"Le Liourat",43.441121537,5.2596201237,0
133456,1171,"Les Jardiniers",43.4290775347,5.2863753338,0
133457,1172,"Les Jardiniers",43.4292256028,5.2859348884,0
122867,12867,"Les Pommiers",43.4482409306,5.2466799211,0
122868,12868,"Les Pommiers",43.4487503523,5.2465060083,0
133626,1341,"Marcel Pagnol",43.4224020582,5.2867617772,0
133627,1342,"Marcel Pagnol",43.4225738917,5.2869317922,0
122853,12853,"Petite Garrigue",43.4416433742,5.2531341317,0
122854,12854,"Petite Garrigue",43.4423278898,5.2528457947,0
122932,12932,"Collet Poste",43.5572215541,5.2441581876,0
123823,13823,"Collège Marcel Pagnol",43.6938252542,5.5081139603,0
123824,13824,"Collège Marcel Pagnol",43.6939138879,5.5081591845,0
123825,13825,"Collège Marie Mauron",43.7000187949,5.5012367427,0
132444,159,"Dourdouille",43.6857061019,5.5006732357,0
133606,1321,"Dourdouille",43.6854024339,5.5014063472,0
133605,1320,"Le Claret",43.6926129288,5.5143321584,0
133598,1313,"Le Flora",43.6916349857,5.5216301667,0
133599,1314,"Le Flora",43.6917497682,5.5219713141,0
133597,1312,"Le Pont de Lèze",43.6991045443,5.5044306695,0
133607,1322,"Les Condamines",43.6915818209,5.5328222195,0
133593,1308,"Tarascon",43.6961193348,5.5211747674,0
122922,12922,"Ferme Croze",43.4231051361,5.2909713324,0
133899,1614,"Ferme Croze",43.4231516274,5.2912027558,0
134155,17961,"Les Pierrassons",43.4344961165,5.5412582132,0
134156,17963,"Les Pierrassons",43.4345346238,5.5413621904,0
134164,17920,"Clos de la Diote",43.4278433374,5.5379827759,0
134505,27964,"Clos de la Diote",43.4278416056,5.5386467569,0
134149,17912,"Carlin Couperine",43.42617445,5.5423874944,0
134150,17914,"Carlin Couperine",43.4260064093,5.54217833,0
134173,18223,"Toulon",43.4516567018,5.4726218559,0
134174,18225,"Toulon",43.451610691,5.4724256684,0
134129,17986,"Rond Point des Phocéens",43.4554383489,5.4646188951,0
134116,17970,"Maison de Retraite",43.4493958554,5.4752107747,0
134214,17972,"Maison de Retraite",43.4493514713,5.4751520179,0
134114,17953,"Le Virginia",43.4463043686,5.485770705,0
134203,11176,"Le Virginia",43.4463516013,5.4857702172,0
134098,11169,"Ecole Saint-Joseph",43.4629467823,5.4835346891,0
134168,17931,"Ecole Saint-Joseph",43.4628087869,5.483524786,0
134166,17928,"Côteaux de Veline",43.4525806025,5.4749100964,0
134167,17930,"Côteaux de Veline",43.4525884066,5.4747191687,0
134112,17925,"Colline des Frères",43.4526046966,5.4678150699,0
134165,17927,"Colline des Frères",43.452400301,5.4678463266,0
134183,17922,"Collevieille Cauvet",43.4393259512,5.4586002487,0
134184,17924,"Collevieille Cauvet",43.4398432896,5.4580498962,0
134099,11170,"Centre Charpak",43.4459318552,5.4796182654,0
134210,17915,"Centre Charpak",43.4458342471,5.4794956376,0
134111,17905,"08-mai-45",43.4587504412,5.4786962607,0
134163,17907,"08-mai-45",43.4585880443,5.4787907502,0
127192,17192,"Sauvecanne",43.429579539,5.4036682718,0
134067,18158,"Marine",43.5203080085,5.5338582285,0
134068,18160,"Marine",43.5208057023,5.5326561789,0
132637,352,"Chopin",43.5355679363,5.4654787589,0
134121,14716,"Chopin",43.5354364503,5.4653602916,0
120093,10093,"Arts et Métiers",43.5297474049,5.4540088249,0
134120,14706,"Arts et Métiers",43.5298658585,5.4538391247,0
134063,18270,"Saint Joseph",43.7036802554,5.4973038354,0
124883,14883,"Les Moulins",43.688507367,5.4970081721,0
132443,158,"Les Moulins",43.6884380523,5.4968788133,0
132420,135,"Barba",43.6927630789,5.4950179343,0
134051,18266,"Barba",43.6928531846,5.4950128531,0
134007,18243,"Asters",43.6957785861,5.525226307,0
134008,18245,"Asters",43.6957044263,5.52537714,0
124586,14586,"08-mai-45",43.6840578355,5.5014742684,0
134032,14587,"08-mai-45",43.6841530133,5.5012572014,0
134077,15111,"Grande Terre",43.6004413853,5.4868201292,0
124662,14662,"Village Haut",43.5559404563,5.6036728491,0
134091,14659,"Village Haut",43.5560073873,5.6033558634,0
134117,18208,"Pergine",43.4172011273,5.5170961649,0
134118,18210,"Pergine",43.4167285795,5.5173752909,0
134171,17964,"Pascaret",43.4349342571,5.5383553384,0
134172,17966,"Pascaret",43.4347532947,5.5387702494,0
134100,11171,"Groupe Scolaire Les Aires",43.4528980483,5.4822283847,0
134088,18240,"Ecole Virginie Dedieu",43.4381923272,5.4113134502,0
132342,57,"Roseaux",43.487730432,5.4124828035,0
134108,14802,"Roseaux",43.4879159322,5.412443366,0
133937,15026,"Jardin St Donat",43.5477066748,5.4552342282,0
134076,15027,"Jardin St Donat",43.5479052231,5.4554058204,0
134080,17883,"Brassens",43.5419062354,5.4561712086,0
134081,17885,"Brassens",43.5417706457,5.4565447943,0
134096,11144,"Saint Joseph",43.4609004449,5.4806494193,0
134160,11145,"Saint Joseph",43.460701703,5.4805250608,0
124618,14618,"St Colomé",43.7043143399,5.5050433897,0
132429,144,"St Colomé",43.7035867967,5.5053509252,0
124906,14906,"La Diane",43.6948973289,5.5047950985,0
132433,148,"La Diane",43.6948523141,5.5048731848,0
134115,17960,"Les Oliviers",43.4444427701,5.4860733331,0
134204,11178,"Les Oliviers",43.4445692567,5.4862847368,0
132755,470,"Chemin du Seuil",43.5857939337,5.413007095,0
133978,14944,"Chemin du Seuil",43.5857611088,5.4128962818,0
124862,14862,"Petit Nice",43.5338060205,5.4625318795,0
134119,10097,"Petit Nice",43.5344524891,5.4629983948,0
134107,14720,"Commanderie",43.4882884388,5.4183804091,0
132644,359,"A1",43.5317681048,5.3965647676,0
132645,360,"A2",43.531353341,5.4002890402,0
132646,361,"A3",43.5356966537,5.4039649193,0
132648,363,"A4",43.5369278367,5.3934132672,0
133950,14690,"A5",43.5459523518,5.392105303,0
132756,471,"C22",43.5841190368,5.4152059916,0
133979,14945,"C22",43.5833835336,5.4152916292,0
132962,677,"Cézanne",43.5398571204,5.4459377199,0
132963,678,"Cézanne",43.5399097044,5.4460248114,0
132641,356,"Château Galice",43.5238070259,5.3762277319,0
132572,287,"CLG Rocher Du Dragon",43.5339290544,5.4392777555,0
132822,537,"Couteron Ecole",43.5996083439,5.4470107225,0
132823,538,"Couteron Eglise",43.5992080809,5.4445080995,0
132905,620,"Crespi",43.5537041386,5.4436341441,0
132906,621,"Crespi",43.5538168075,5.4436650044,0
134004,18659,"Cruyes Scolaire",43.5636305877,5.4289837125,0
132878,593,"D04",43.5940367928,5.4558809262,0
132850,565,"D09",43.581576964,5.4302468627,0
134440,17703,"D09",43.5814919694,5.4301131152,0
132883,598,"D10",43.5789419528,5.442189068,0
132884,599,"D11",43.5791836559,5.4496938729,0
132885,600,"D12",43.579758489,5.4538577339,0
132626,341,"Daudet",43.5351417344,5.4632300405,0
132632,347,"Daudet",43.5350797556,5.4634290987,0
132909,624,"De Mazenod",43.547125535,5.4454783766,0
132910,625,"De Mazenod",43.5472813909,5.4454149786,0
133946,14377,"Ecole Auguste Boyer",43.5071476854,5.3913303801,0
132891,606,"Entremont",43.55266335,5.435794132,0
132892,607,"Entremont",43.5518597763,5.4366061751,0
132929,644,"Eolienne",43.5589067075,5.4419412031,0
132930,645,"Eolienne",43.5589592068,5.4420314073,0
132766,481,"Erables",43.5801478162,5.4167481094,0
132767,482,"Erables",43.5801013756,5.4172729919,0
132825,540,"Font-Rousse Bas",43.5964044494,5.4426119866,0
132826,541,"Font-Rousse Bas",43.5960707038,5.4424097359,0
124470,14470,"Fontenaille",43.5340579615,5.4608967382,0
124471,14471,"Fontenaille",43.5339196387,5.4611310292,0
132772,487,"Grand Domaine",43.582281425,5.4112720419,0
133997,17707,"Grand Domaine",43.58162107,5.4112852145,0
132927,642,"Grands Chênes",43.5606211462,5.4346619048,0
132928,643,"Grands Chênes",43.5605592312,5.4347822337,0
133983,17203,"Guienne",43.5781894786,5.409788274,0
133984,17204,"Guienne",43.5773240366,5.4103317071,0
132833,548,"IAE",43.5870303503,5.4235886852,0
132834,549,"IAE",43.5869546547,5.4235227228,0
132854,569,"La Ginette",43.539747346,5.4425238806,0
132855,570,"La Ginette",43.5399552536,5.4425660885,0
127796,17796,"La Grassie",43.5098906927,5.4334012499,0
132778,493,"La Touloubre",43.5773098546,5.4204598235,0
132779,494,"La Touloubre",43.5774415704,5.4205720977,0
124966,14966,"Lagremeuse",43.4787817824,5.3563931387,0
134553,22822,"Lagremeuse",43.4797030842,5.3553278895,0
120091,10091,"Les Platanes",43.5556840286,5.4595066707,0
120092,10092,"Les Platanes",43.5561022711,5.4598959235,0
132877,592,"Levesque",43.5975119396,5.4548377264,0
132937,652,"Loubassane",43.5424318144,5.4488258502,0
132938,653,"Loubassane",43.5423052542,5.4489650172,0
132915,630,"Madeleine",43.575493852,5.4321868796,0
132916,631,"Madeleine",43.5754231937,5.4320237638,0
132931,646,"Marguerite",43.5505482966,5.438543808,0
132932,647,"Marguerite",43.5502568274,5.4387490367,0
132571,286,"Maruége",43.5443861073,5.4556002013,0
132939,654,"Maruége",43.5449482894,5.4553657989,0
132941,656,"Maruége Haut",43.5464324089,5.4548200023,0
132942,657,"Maruége Haut",43.5463085265,5.4550219133,0
132858,573,"Muriers Blanc",43.5426877156,5.4409881453,0
132859,574,"Muriers Blanc",43.5426399526,5.4410852419,0
132680,395,"Répentance",43.5362693963,5.4733510102,0
132683,398,"Répentance",43.5366203055,5.473462994,0
125004,15004,"Roi René",43.523946325,5.4498668595,0
132876,591,"Route de Moulin",43.5974401789,5.4508910592,0
132636,351,"Saints Pères",43.5255059051,5.3991822922,0
132638,353,"Saints Pères",43.5255104773,5.3990210743,0
124813,14813,"Scotto",43.5250095169,5.4287512547,0
124814,14814,"Scotto",43.524868628,5.428724321,0
132829,544,"Village Soleil",43.5900415276,5.4317997906,0
132830,545,"Village Soleil",43.59020339,5.4320761721,0
124844,14844,"Zola",43.5329138665,5.4551627952,0
124845,14845,"Zola",43.5328906909,5.4548362365,0
124486,14486,"Camping",43.517496449,5.5412011697,0
127435,17435,"Bartavelles",43.4488353462,5.390257193,0
127437,17437,"Bartavelles",43.4486928523,5.3903267431,0
120577,10577,"Châteaubriand",43.4442275028,5.4171272778,0
124929,14929,"Châteaubriand",43.4441541671,5.4170971022,0
120580,10580,"Clos des Pins",43.4587372446,5.3961707891,0
120594,10594,"Escandihado",43.4583959585,5.412282257,0
124668,14668,"Escandihado",43.4582215879,5.4125229005,0
124074,14074,"Hameau du Verger",43.4286060562,5.4132929581,0
124075,14075,"Hameau du Verger",43.4287002152,5.4133813118,0
127236,17236,"L'Oliveraie",43.4515540534,5.4156289209,0
127237,17237,"L'Oliveraie",43.4514192543,5.4161370698,0
132602,317,"La Milane",43.4477664973,5.3943346369,0
132603,318,"La Milane",43.4473783425,5.3951779776,0
124036,14036,"La Salle - Centre Commercial",43.4415667456,5.4231732581,0
124037,14037,"La Salle - Centre Commercial",43.4412326568,5.4233373026,0
120571,10571,"La Salle - Le Merle",43.438080451,5.4245519907,0
124933,14933,"La Salle - Le Merle",43.437469673,5.4241318219,0
124070,14070,"La Tuilerie",43.4654459698,5.4198823625,0
124071,14071,"La Tuilerie",43.4647137168,5.4202889768,0
124669,14669,"Les Cayols",43.4293104358,5.4045523696,0
124670,14670,"Les Cayols",43.4294383664,5.4055873077,0
120539,10539,"Les Tilleuls",43.4366406291,5.4178221385,0
120540,10540,"Les Tilleuls",43.4372876583,5.4174859303,0
124023,14023,"Les Vergers",43.4543700827,5.3961572656,0
125091,15091,"Petit Nice",43.4496548489,5.4283751378,0
125092,15092,"Petit Nice",43.449536899,5.428607172,0
120597,10597,"Prévert",43.4488223256,5.4314533141,0
124937,14937,"Prévert",43.447809227,5.4327911268,0
127798,17798,"Saint Saens",43.4426720174,5.4265431027,0
120598,10598,"Sainte Anne",43.4538927142,5.4143187908,0
124936,14936,"Sainte Anne",43.453946489,5.4144829444,0
132621,336,"CLG Marie Mauron",43.4458249574,5.3543870874,0
123737,13737,"Clos Saint Imbert",43.4691088902,5.3390828663,0
132725,440,"Ecole de Musique",43.4408839666,5.3819077152,0
133022,737,"Ecole de Musique",43.4408970843,5.3822393442,0
132617,332,"Jussieu",43.4558820513,5.384366916,0
132618,333,"Jussieu",43.4561045303,5.3841719713,0
125084,15084,"La Brasse",43.4581043629,5.3752503503,0
125085,15085,"La Brasse",43.4585227515,5.3741660354,0
132612,327,"La Dame",43.4627381525,5.3686638064,0
132614,329,"La Dame",43.4621149893,5.3691964368,0
120681,10681,"Le Couladou",43.4360570057,5.3797874478,0
120682,10682,"Le Couladou",43.4370629752,5.3796341921,0
127432,17432,"Le Moulinet",43.4489401266,5.3847649881,0
127434,17434,"Le Moulinet",43.4488821019,5.3850280696,0
120679,10679,"Le Puits Neuf",43.4405712554,5.3767350711,0
120680,10680,"Le Puits Neuf",43.4405643522,5.3761823858,0
132595,310,"Le Puits Vieux",43.441691074,5.3819097602,0
133003,718,"Les Grandes Terres",43.4439678069,5.36829537,0
133004,719,"Les Grandes Terres",43.4443246395,5.369198339,0
132605,320,"Violet",43.4465631144,5.3788893746,0
132606,321,"Violet",43.4464893493,5.3785552631,0
124985,14985,"La Cardeline",43.4883999664,5.5547608811,0
124986,14986,"La Cardeline",43.4884329922,5.5548221915,0
124666,14666,"La Muscatelle",43.4830783148,5.5440822862,0
133035,750,"Cimetière",43.4590304942,5.5572520469,0
133687,1402,"Cimetière",43.4590556901,5.5563328093,0
133042,757,"Cité Brogilum",43.4360975797,5.5579168011,0
133040,755,"Fina",43.4465063371,5.5229469246,0
121134,11134,"Halte Routière",43.4534176621,5.5582418422,0
121137,11137,"Jas de Bassas",43.4445673427,5.5525128847,0
133027,742,"La Roucaoudo",43.4571223175,5.5642179839,0
133053,768,"Le Stade",43.4470896988,5.5626940434,0
133054,769,"Le Stade",43.4469813126,5.5627843794,0
132978,693,"Les Laouvas",43.4594050821,5.5469120482,0
133050,765,"Les Laouvas",43.4598624477,5.5465039955,0
134220,18661,"Norias",43.4477231522,5.4773673037,0
134221,18663,"Norias",43.4471585685,5.4778763942,0
124695,14695,"Saint Esprit",43.636864978,5.6424624075,0
121700,11700,"Le Canet",43.4936449842,5.5240732575,0
121701,11701,"Le Canet",43.4932352657,5.5242033146,0
121690,11690,"Les Côteaux Rouges",43.4818479923,5.4971146316,0
121691,11691,"Les Côteaux Rouges",43.481847675,5.4968567667,0
121702,11702,"Pont de Bayeux",43.5015410578,5.5155719429,0
121703,11703,"Pont de Bayeux",43.5022434653,5.5144363466,0
125057,15057,"Grande Avenue",43.4176953665,5.3580681744,0
125058,15058,"Grande Avenue",43.4176533827,5.3584831137,0
121947,11947,"Les Violettes",43.6455213709,5.5967730906,0
121948,11948,"Les Violettes",43.6454586941,5.5967633152,0
124515,14515,"Camping",43.5267431896,5.682432296,0
127510,17510,"Cézanne",43.5241223478,5.6647801472,0
127512,17512,"Cézanne",43.5241902731,5.6648381863,0
125070,15070,"Les Pallières",43.5253879326,5.6775400758,0
125071,15071,"Les Pallières",43.5253356338,5.6775586538,0
122193,12193,"Les Bannettes",43.4869653703,5.608968149,0
122194,12194,"Les Bannettes",43.4869283581,5.6093729346,0
124484,14484,"Maison Ste Victoire",43.519523267,5.5837747155,0
124485,14485,"Maison Ste Victoire",43.519627355,5.5830428488,0
124466,14466,"Keyrie",43.5400874877,5.4920369116,0
124468,14468,"Les 3 Chemins",43.5352286025,5.4794500829,0
124469,14469,"Les 3 Chemins",43.5354414296,5.4804431323,0
122301,12301,"Les Bonfillons",43.5505273884,5.5400807369,0
122302,12302,"Les Bonfillons",43.5505980606,5.5400862446,0
124464,14464,"Les Verans",43.5484292458,5.5240813469,0
124465,14465,"Les Verans",43.5484040446,5.5243257259,0
125148,15148,"CEA Cadarache",43.700758347,5.7420990466,0
125149,15149,"CEA Cadarache",43.7006070332,5.742154336,0
127824,17824,"ITER",43.7113820933,5.7728471,0
122617,12617,"Cours des Héros",43.4294274524,5.4359921803,0
127841,17841,"Le Saffre",43.4397645105,5.4388868177,0
127843,17843,"Le Saffre",43.4395905726,5.4388758502,0
124116,14116,"Le Siège",43.4296164792,5.4191648803,0
133064,779,"Le Siège",43.4296614646,5.4192822203,0
122622,12622,"Les Migraniers",43.4343817208,5.4368172538,0
122623,12623,"Les Migraniers",43.4343382975,5.4366853185,0
122619,12619,"Pêche à la Truite",43.4436026612,5.4399002035,0
122616,12616,"Petit Chemin de Bouc",43.4316166086,5.4353941366,0
124948,14948,"Vallon de Simiane",43.4308526685,5.4255821598,0
124949,14949,"Vallon de Simiane",43.4308964723,5.4255050805,0
124681,14681,"Village des Ormeaux",43.4321614147,5.4247518812,0
124682,14682,"Village des Ormeaux",43.4319483395,5.4248121206,0
127835,17835,"Château Noir",43.5233422413,5.4934041378,0
127837,17837,"Château Noir",43.5233960317,5.493410198,0
132421,136,"Ferrageon",43.5222243864,5.5105570377,0
132422,137,"Ferrageon",43.5222320635,5.5107930912,0
132432,147,"Maison Pezet",43.5097864239,5.4897856941,0
132434,149,"Maison Pezet",43.5096505825,5.4897403578,0
132439,154,"Pont Chandelles",43.510994329,5.4871149547,0
132442,157,"Pont Chandelles",43.5109571822,5.4876172769,0
134452,18677,"Cassin Pôle d'Echanges",43.4497545765,5.6784314266,0
124657,14657,"La Jonquière",43.5569309441,5.5493497019,0
124660,14660,"La Jonquière",43.5569854292,5.5491811519,0
122684,12684,"Le Chenil",43.5550135318,5.5887429646,0
122685,12685,"Le Chenil",43.5554991896,5.5897167942,0
124658,14658,"Les Bourgarels",43.556382404,5.5554636502,0
124661,14661,"Les Bourgarels",43.5562644724,5.5560630597,0
134087,18623,"Centre Aquatique",43.5979200854,5.4950432653,0
122723,12723,"Les Logissons",43.5805010912,5.4712167051,0
122724,12724,"Les Logissons",43.5801142688,5.4708304721,0
133460,1175,"Le Brusquié",43.4339009872,5.2840793793,0
133461,1176,"Le Brusquié",43.4338492582,5.2841623276,0
132404,119,"La Dévalade",43.6969493917,5.5001062359,0
134044,14597,"La Dévalade",43.6969607381,5.4999487835,0
124877,14877,"Roger Bernard",43.689866203,5.5127479727,0
132386,101,"Roger Bernard",43.6897761193,5.5127522521,0
123819,13819,"Saint Benoît",43.5143664123,5.461418226,0
133992,17383,"Célony Ecole",43.5567826245,5.4192569555,0
133993,17384,"Célony Ecole",43.5563174496,5.4197590292,0
132933,648,"Portail Cézanne",43.5421490862,5.4456427779,0
132934,649,"Portail Cézanne",43.542139914,5.4455317697,0
132935,650,"Portail Cézanne",43.5425400911,5.4461594101,0
132936,651,"Portail Cézanne",43.5426708761,5.445756169,0
122765,12765,"Le Berry",43.5416728891,5.3044601453,0
122766,12766,"Le Berry",43.5417036145,5.3048148794,0
132634,349,"Grande Bastide",43.5300643585,5.4094101959,0
132635,350,"Grande Bastide",43.5299054466,5.4095028667,0
120667,10667,"Domaine du Réaltor",43.4704193542,5.3335152965,0
134442,18669,"Lou Valadet",43.4403956602,5.5501192337,0
134443,18671,"Lou Valadet",43.440847873,5.5505257213,0
134438,10104,"Nelson Mandela",43.5290270198,5.4386547663,0
123962,13962,"Les Collets",43.5558454171,5.2392699109,0
132288,3,"Europôle Arbois",43.4903592832,5.3320136569,0
134110,17752,"Pont Arc Mairie",43.5095438471,5.438198829,0
132879,594,"Présidente",43.5902605236,5.4574621086,0
133996,17702,"Présidente",43.5902682768,5.4573882813,0
133949,14394,"Aire d'Accueil des Gens du Voyage",43.4589224375,5.3055439512,0
134095,18625,"Gouirand",43.5551604,5.6057819142,0
120162,10162,"Requier",43.5002628946,5.3825348566,0
120163,10163,"Requier",43.5007413896,5.3818329176,0
134506,10164,"Requier",43.5011837799,5.3817730718,0
132305,20,"Maison d'Arrêt D59",43.4791103445,5.3944650692,0
134449,18768,"Maison d'Arrêt D59",43.4790124226,5.394469099,0
124642,14642,"Marcel Pagnol",43.5266451288,5.4238867381,0
124643,14643,"Marcel Pagnol",43.5261895202,5.4239749303,0
134445,18748,"Pompidou",43.5284765344,5.4389532537,0
134458,18755,"Giboux",43.4287237224,5.47133588,0
134459,18757,"Giboux",43.4287910073,5.4714190045,0
133341,1056,"Hôtel de Ville",43.7148774007,5.3076482789,0
133342,1057,"Hôtel de Ville",43.7149913978,5.3075914397,0
134446,18750,"Collet",43.6092668973,5.4966791626,0
120526,10526,"Violési",43.4371597585,5.3988892443,0
120527,10527,"Violési",43.4380716443,5.3975372079,0
127681,17681,"Violési",43.4374449529,5.3973178074,0
133685,1400,"Violési",43.4378851894,5.3967790144,0
133686,1401,"Violési",43.4377425112,5.3969341467,0
122667,12667,"La Crémade",43.5195253231,5.5116888065,0
134492,26633,"Collège",43.4075603221,5.3708632812,0
134508,26292,"Collège",43.4066423667,5.3710860306,0
127675,17675,"Lycée Duby A",43.4801464857,5.4141716964,0
120170,10170,"Pôle d'Activités",43.4912331541,5.3735148857,0
121139,11139,"La Barque",43.477476676,5.5388694255,0
121140,11140,"La Barque",43.477436402,5.5387868881,0
134141,18609,"La Barque",43.4770120466,5.5386898034,0
134467,14237,"Trois Ponts",43.4696019009,5.565841947,0
134455,18776,"Baone",43.5542921454,5.2443144375,0
134573,21617,"Galice",43.5284092251,5.4333466858,0
134577,20476,"Galice",43.5282314863,5.4333501923,0
134103,13743,"Coton Rouge",43.5134037897,5.451933748,0
134142,10056,"Coton Rouge",43.5132784194,5.4531612208,0
133948,14392,"Le Serre 03",43.5023775225,5.3912501384,0
134472,18799,"P+R Arena Q2",43.4717356137,5.4021442649,0
127471,17471,"Pré Bosque",43.6440146146,5.5035267398,0
127473,17473,"Pré Bosque",43.6441023907,5.5039852903,0
134473,18793,"Figuiers",43.5584816951,5.2535470373,0
124180,14180,"Les Rampauds",43.4136783815,5.5230129741,0
134483,22376,"La Gare",43.4032828343,5.3708672305,0
134487,24498,"La Gare",43.4034073897,5.3708352826,0
133614,1329,"Vauclaire",43.6494108197,5.4869620309,0
133615,1330,"Vauclaire",43.6492389322,5.4871499755,0
122195,12195,"Victoire",43.4732949902,5.6093928554,0
122196,12196,"Victoire",43.4730504468,5.6092630793,0
133680,1395,"LEP Sainte Elisabeth",43.4018782998,5.3542299548,0
122938,12938,"Avenue de l'Europe",43.554121716,5.2405356698,0
134106,14713,"Chamson",43.486446897,5.4132197914,0
134480,27772,"Les Pradelles",43.4684396795,5.3543648632,0
134481,27773,"Les Pradelles",43.4684434483,5.3541497403,0
134456,18752,"Vendange",43.57291436,5.3614023425,0
134457,18754,"Vendange",43.5731974711,5.3616910381,0
134498,28035,"Font de Garach",43.4452457058,5.4831773206,0
134499,28036,"Font de Garach",43.445456827,5.4828386628,0
120168,10168,"Foucault",43.4879199273,5.3592641394,0
120169,10169,"Foucault",43.4880709968,5.3593292512,0
133583,1298,"Le Serre 01",43.5022922695,5.3906077211,0
134512,28082,"Petit Coudoux",43.5579925974,5.2472960986,0
134005,17332,"Jaubert",43.6973566763,5.5145772181,0
134013,18280,"Jaubert",43.6976276331,5.5148852455,0
124502,14502,"Paul Arène",43.6895467828,5.5096053485,0
134031,14503,"Paul Arène",43.6894259856,5.5092763036,0
122729,12729,"Les Cabassols",43.593130499,5.4817278972,0
122730,12730,"Les Cabassols",43.5930621169,5.4814503139,0
134550,25837,"Les Cabassols",43.593130499,5.4817278972,0
121325,11325,"Le Logis d'Anne",43.6588263512,5.6337053217,0
134301,11326,"Le Logis d'Anne",43.6588780321,5.6341497447,0
133501,1216,"Accessibus",43.5241401015,5.4423960468,0
134558,28444,"Pôle d'Echanges Quai 1",43.4501212414,5.6781372316,0
134559,28446,"Pôle d'Echanges Quai 2",43.4501985405,5.6782189087,0
134561,28448,"Pôle d'Echanges Quai 3",43.4502712307,5.6783041752,0
134557,28452,"Pôle d'Echanges Quai 5",43.4502141363,5.6784050141,0
134556,28450,"Pôle d'Echanges Quai 4",43.4501092564,5.6783062936,0
134581,20175,"Encagnane Mairie Annexe",43.5241999712,5.4330298548,0
134585,26475,"Encagnane Mairie Annexe",43.5239301864,5.4339299326,0
134584,26389,"Europe",43.5247803773,5.4294503814,0
134583,25034,"St John Perse",43.5251194896,5.4242400757,0
134579,24179,"St Mitre des Champs",43.5367701041,5.4189797956,0
134496,27788,"GR SNCF Quai 02",43.4554964255,5.4647871978,0
134497,27789,"GR SNCF Quai 03",43.4554964255,5.4647871978,0
134495,27790,"GR SNCF Quai 04",43.4554964255,5.4647871978,0
134565,29273,"Jardin des Essences",43.434334661,5.4115690986,0
134566,29274,"Jardin des Essences",43.4344520531,5.4111187778,0
134569,29182,"Ambrogiani",43.4833494731,5.347460222,0
134570,29184,"Ambrogiani",43.4832400499,5.3483599721,0
134576,29387,"Halte Mistral 1",43.6869416142,5.394151034,0
134575,29388,"Halte Mistral 2",43.6869140484,5.3943308436,0
134567,29276,"Mazet",43.3922492556,5.3639189613,0
132824,539,"Couteron",43.5974418831,5.4431719892,0
132690,405,"Cruyes",43.5671782327,5.420983726,0
132691,406,"Cruyes",43.5671784937,5.4210927502,0
132297,12,"Lavoisier",43.4894373771,5.3677303093,0
132578,293,"Parc Saint Mitre",43.5320391863,5.4244863316,0
133325,1040,"Parc Saint Mitre",43.5321038607,5.4231678245,0
134582,21706,"Europe",43.524919507,5.4294602255,0
134578,20533,"Victor Hugo",43.5245903865,5.4463999351,0
124871,14871,"Malherbe",43.5238895017,5.4471961621,0
134571,26135,"Saint Mitre",43.5359667676,5.4170302319,0
134125,17209,"Les Trois Bons Dieux",43.5353053117,5.4761942276,0
134126,17210,"Les Trois Bons Dieux",43.5352370804,5.4760660736,0
134580,29397,"Nativité Duranne",43.4840400936,5.3478099854,0
120785,10785,"La Tuilerie",43.4900935542,5.5867501248,0
120786,10786,"La Tuilerie",43.4901397539,5.5853652041,0
133823,1538,"Parc d'Activités",43.4543092153,5.4530594035,0
